{"type":"FeatureCollection","name":"okn","features":[{"type":"Feature","geometry":{"id":149349,"coordinates":[60.546657,56.851495],"type":"Point"},"properties":{"name":"Здание заводоуправления Верх-Исетского завода","id":760,"category":"Федерального значения"}},{"type":"Feature","geometry":{"id":132066,"coordinates":[60.607274845789476,56.84770625],"type":"Point"},"properties":{"name":"Дом жилой","id":3,"category":"Регионального значения"}},{"type":"Feature","geometry":{"id":132067,"coordinates":[60.608464830368376,56.83534735],"type":"Point"},"properties":{"name":"Дом И.Х.Гофмейстера","id":11,"category":"Регионального значения"}},{"type":"Feature","geometry":{"id":132068,"coordinates":[60.57235694778121,56.83259735],"type":"Point"},"properties":{"name":"Кассы билетные с воротами главного входа восточные","id":7,"category":"Регионального значения"}},{"type":"Feature","geometry":{"id":132070,"coordinates":[60.59301497293069,56.8327094],"type":"Point"},"properties":{"name":"Дом жилой","id":2,"category":"Регионального значения"}},{"type":"Feature","geometry":{"id":132061,"coordinates":[60.5665878,56.8466538],"type":"Point"},"properties":{"name":"Дом, в котором находилась подпольная типография Екатеринбургского комитета РСДРП(б)","id":12,"category":"Регионального значения"}},{"type":"Feature","geometry":{"id":132063,"coordinates":[60.63176846418969,56.84102235],"type":"Point"},"properties":{"name":"Дом жилой","id":58,"category":"Регионального значения"}},{"type":"Feature","geometry":{"id":132062,"coordinates":[60.57235694778121,56.83259735],"type":"Point"},"properties":{"name":"Фасад западной трибуны главной спортивной арены","id":6,"category":"Регионального значения"}},{"type":"Feature","geometry":{"id":132065,"coordinates":[60.57235694778121,56.83259735],"type":"Point"},"properties":{"name":"Ограда металлическая с кирпичными столбами","id":9,"category":"Регионального значения"}},{"type":"Feature","geometry":{"id":132069,"coordinates":[60.57235694778121,56.83259735],"type":"Point"},"properties":{"name":"Кассы билетные с воротами западные","id":8,"category":"Регионального значения"}},{"type":"Feature","geometry":{"id":132064,"coordinates":[60.57235694778121,56.83259735],"type":"Point"},"properties":{"name":"Фасад восточной трибуны главной спортивной арены","id":5,"category":"Регионального значения"}},{"type":"Feature","geometry":{"id":132077,"coordinates":[60.613992134457234,56.8435511],"type":"Point"},"properties":{"name":"Дом А.Н. Судакова","id":170,"category":"Регионального значения"}},{"type":"Feature","geometry":{"id":132074,"coordinates":[60.595210826423575,56.848263],"type":"Point"},"properties":{"name":"Котельное отделение с кирпичной трубой","id":19,"category":"Регионального значения"}},{"type":"Feature","geometry":{"id":132071,"coordinates":[60.595210826423575,56.848263],"type":"Point"},"properties":{"name":"Четырехэтажное каменное здание мельницы","id":17,"category":"Регионального значения"}},{"type":"Feature","geometry":{"id":132072,"coordinates":[60.595210826423575,56.848263],"type":"Point"},"properties":{"name":"Здание силового отделения","id":18,"category":"Регионального значения"}},{"type":"Feature","geometry":{"id":132073,"coordinates":[60.595210826423575,56.848263],"type":"Point"},"properties":{"name":"Симановская мельница","id":20,"category":"Регионального значения"}},{"type":"Feature","geometry":{"id":132075,"coordinates":[60.61527400058435,56.8226825],"type":"Point"},"properties":{"name":"Дом и церковь Троицкая Общества старообрядцев (Австрийская церковь)","id":21,"category":"Регионального значения"}},{"type":"Feature","geometry":{"id":132076,"coordinates":[60.595210826423575,56.848263],"type":"Point"},"properties":{"name":"Здание лаборатории","id":16,"category":"Регионального значения"}},{"type":"Feature","geometry":{"id":132080,"coordinates":[60.614228070787135,56.842924350000004],"type":"Point"},"properties":{"name":"Дом М.М. Крылова","id":24,"category":"Регионального значения"}},{"type":"Feature","geometry":{"id":132081,"coordinates":[60.62255778466032,56.8286578],"type":"Point"},"properties":{"name":"Жилой дом","id":401,"category":"Регионального значения"}},{"type":"Feature","geometry":{"id":132078,"coordinates":[60.610626,56.844639],"type":"Point"},"properties":{"name":"Памятник комсомолу Урала","id":693,"category":"Регионального значения"}},{"type":"Feature","geometry":{"id":132079,"coordinates":[60.59116555345328,56.83256235],"type":"Point"},"properties":{"name":"Здание управления Тюмень-Омской железной дороги с магазинами","id":127,"category":"Регионального значения"}},{"type":"Feature","geometry":{"id":132103,"coordinates":[60.648216,56.844604],"type":"Point"},"properties":{"name":"Здание Суворовского военного училища","id":593,"category":"Регионального значения"}},{"type":"Feature","geometry":{"id":132170,"coordinates":[60.60266316996499,56.823287449999995],"type":"Point"},"properties":{"name":"Здание Епархиального женского училища","id":74,"category":"Регионального значения"}},{"type":"Feature","geometry":{"id":132084,"coordinates":[60.600452937672955,56.8333956],"type":"Point"},"properties":{"name":"Магазин","id":34,"category":"Местного (муниципального) значения"}},{"type":"Feature","geometry":{"id":132083,"coordinates":[60.60076865,56.83036455],"type":"Point"},"properties":{"name":"Дом мещанина К.А. Чудинова","id":40,"category":"Регионального значения"}},{"type":"Feature","geometry":{"id":132085,"coordinates":[60.606589,56.82497],"type":"Point"},"properties":{"name":"Жилой комплекс \"2 Дом Советов\"","id":31,"category":"Федерального значения"}},{"type":"Feature","geometry":{"id":132086,"coordinates":[60.60132041711593,56.82084725],"type":"Point"},"properties":{"name":"Корпус рукодельный","id":479,"category":"Регионального значения"}},{"type":"Feature","geometry":{"id":132087,"coordinates":[60.600452937672955,56.8333956],"type":"Point"},"properties":{"name":"Дом жилой с лавкой на первом этаже","id":33,"category":"Регионального значения"}},{"type":"Feature","geometry":{"id":132088,"coordinates":[60.599997150124686,56.8319272],"type":"Point"},"properties":{"name":"Особняк с элементами неоготики","id":35,"category":"Регионального значения"}},{"type":"Feature","geometry":{"id":132089,"coordinates":[60.60017206277596,56.831814],"type":"Point"},"properties":{"name":"Дом купца Соснина","id":36,"category":"Регионального значения"}},{"type":"Feature","geometry":{"id":132090,"coordinates":[60.60784039043111,56.849202000000005],"type":"Point"},"properties":{"name":"Фабрика-кухня","id":195,"category":"Регионального значения"}},{"type":"Feature","geometry":{"id":132091,"coordinates":[60.60067083887435,56.83264535],"type":"Point"},"properties":{"name":"Дом Рязанова И.Д.","id":37,"category":"Регионального значения"}},{"type":"Feature","geometry":{"id":132082,"coordinates":[60.60094818330627,56.83214715],"type":"Point"},"properties":{"name":"Дом жилой","id":39,"category":"Регионального значения"}},{"type":"Feature","geometry":{"id":132218,"coordinates":[60.59314198613875,56.8263206],"type":"Point"},"properties":{"name":"Жилой дом с башенками и деревянной резьбой","id":218,"category":"Регионального значения"}},{"type":"Feature","geometry":{"id":132094,"coordinates":[60.61469145,56.8346672],"type":"Point"},"properties":{"name":"Дом Дьяконовой в духе эклектики","id":43,"category":"Регионального значения"}},{"type":"Feature","geometry":{"id":132095,"coordinates":[60.59999348398276,56.8374449],"type":"Point"},"properties":{"name":"Здание Консистории","id":44,"category":"Федерального значения"}},{"type":"Feature","geometry":{"id":132096,"coordinates":[60.59622895325464,56.8384396],"type":"Point"},"properties":{"name":"Здание Сибирского торгового банка","id":45,"category":"Регионального значения"}},{"type":"Feature","geometry":{"id":132097,"coordinates":[60.599987491843514,56.83855415],"type":"Point"},"properties":{"name":"Здание мужской гимназии, где были созданы первые революционные и марксистские кружки на Урале","id":46,"category":"Федерального значения"}},{"type":"Feature","geometry":{"id":132098,"coordinates":[60.60609597916098,56.83919795],"type":"Point"},"properties":{"name":"Здание бывшего Окружного суда, где в 1918 г. находился первый в стране Уральский комиссариат труда","id":47,"category":"Федерального значения"}},{"type":"Feature","geometry":{"id":132099,"coordinates":[60.61012574924072,56.83860025],"type":"Point"},"properties":{"name":"Книжный магазин Куренщиковой, использовавшийся в 1905 г. как место большевистской явки","id":48,"category":"Регионального значения"}},{"type":"Feature","geometry":{"id":132092,"coordinates":[60.60084924909951,56.8293538],"type":"Point"},"properties":{"name":"Дом крестьянина им. В.И. Ленина","id":42,"category":"Регионального значения"}},{"type":"Feature","geometry":{"id":132093,"coordinates":[60.60350342988921,56.83240715],"type":"Point"},"properties":{"name":"Усадьба купчихи К.И. Ланггауз","id":549,"category":"Регионального значения"}},{"type":"Feature","geometry":{"id":132104,"coordinates":[60.61649048816038,56.840488],"type":"Point"},"properties":{"name":"Здание бывшего Совнархоза","id":54,"category":"Регионального значения"}},{"type":"Feature","geometry":{"id":132101,"coordinates":[60.61569996880006,56.824180350000006],"type":"Point"},"properties":{"name":"Здание служб","id":390,"category":"Регионального значения"}},{"type":"Feature","geometry":{"id":132102,"coordinates":[60.59572865152326,56.83272695],"type":"Point"},"properties":{"name":"Доходный дом Хребтовой","id":53,"category":"Регионального значения"}},{"type":"Feature","geometry":{"id":132722,"coordinates":[60.603146,56.82501],"type":"Point"},"properties":{"name":"Здание Духовного училища. Учебный корпус Свердловского института народного хозяйства","id":577,"category":"Регионального значения"}},{"type":"Feature","geometry":{"id":132106,"coordinates":[60.6037555,56.8316815],"type":"Point"},"properties":{"name":"Дом У.О. Петелиной","id":65,"category":"Регионального значения"}},{"type":"Feature","geometry":{"id":132109,"coordinates":[60.627318290240055,56.84172435],"type":"Point"},"properties":{"name":"Здание химико-технологического факультета Уральского лесотехнического института, где в 1930-1967 гг. работал ученый лесохимик В.Н. Козлов","id":57,"category":"Регионального значения"}},{"type":"Feature","geometry":{"id":132110,"coordinates":[60.62067215455335,56.8407948],"type":"Point"},"properties":{"name":"Гостиница \"Исеть\"","id":86,"category":"Федерального значения"}},{"type":"Feature","geometry":{"id":132111,"coordinates":[60.609925,56.834954],"type":"Point"},"properties":{"name":"Лавка","id":675,"category":"Регионального значения"}},{"type":"Feature","geometry":{"id":132105,"coordinates":[60.6365408591623,56.84143265],"type":"Point"},"properties":{"name":"Дом жилой","id":59,"category":"Регионального значения"}},{"type":"Feature","geometry":{"id":132107,"coordinates":[60.60466916026698,56.820513649999995],"type":"Point"},"properties":{"name":"Клиническая больница скорой помощи. Комплекс","id":230,"category":"Регионального значения"}},{"type":"Feature","geometry":{"id":132108,"coordinates":[60.60871077642486,56.8291874],"type":"Point"},"properties":{"name":"Ограда и ворота","id":263,"category":"Регионального значения"}},{"type":"Feature","geometry":{"id":132116,"coordinates":[60.586085137296735,56.836906799999994],"type":"Point"},"properties":{"name":"Дом жилой","id":73,"category":"Регионального значения"}},{"type":"Feature","geometry":{"id":132114,"coordinates":[60.62433094721928,56.83200255],"type":"Point"},"properties":{"name":"Детское убежище Екатеринбургского благотворительного общества. Комплекс","id":69,"category":"Регионального значения"}},{"type":"Feature","geometry":{"id":132112,"coordinates":[60.61112285,56.83437395],"type":"Point"},"properties":{"name":"Дом, в котором родился и провел детские года И.Г. Толмачев, герой гражданской войны","id":408,"category":"Регионального значения"}},{"type":"Feature","geometry":{"id":132113,"coordinates":[60.6214373071664,56.842274],"type":"Point"},"properties":{"name":"Жилой дом","id":88,"category":"Федерального значения"}},{"type":"Feature","geometry":{"id":132117,"coordinates":[60.57585322851741,56.828204150000005],"type":"Point"},"properties":{"name":"Могила Бажова Павла Петровича (1879-1950)","id":70,"category":"Федерального значения"}},{"type":"Feature","geometry":{"id":132118,"coordinates":[60.6055765003906,56.83727605],"type":"Point"},"properties":{"name":"Производственный корпус","id":493,"category":"Федерального значения"}},{"type":"Feature","geometry":{"id":132119,"coordinates":[60.62054809039981,56.84271445],"type":"Point"},"properties":{"name":"Жилой дом","id":87,"category":"Федерального значения"}},{"type":"Feature","geometry":{"id":132120,"coordinates":[60.613238577190955,56.826374200000004],"type":"Point"},"properties":{"name":"Бывшая усадьба Железнова","id":71,"category":"Регионального значения"}},{"type":"Feature","geometry":{"id":132115,"coordinates":[60.569476904284954,56.839494599999995],"type":"Point"},"properties":{"name":"Особняк","id":67,"category":"Регионального значения"}},{"type":"Feature","geometry":{"id":132124,"coordinates":[60.62076841851026,56.8415131],"type":"Point"},"properties":{"name":"Детский сад","id":84,"category":"Федерального значения"}},{"type":"Feature","geometry":{"id":132122,"coordinates":[60.622408204658726,56.8411294],"type":"Point"},"properties":{"name":"Столовая","id":82,"category":"Федерального значения"}},{"type":"Feature","geometry":{"id":132125,"coordinates":[60.622408204658726,56.8411294],"type":"Point"},"properties":{"name":"Дом культуры им. Ф.Э. Дзержинского","id":85,"category":"Федерального значения"}},{"type":"Feature","geometry":{"id":132126,"coordinates":[60.639343153268655,56.8483231],"type":"Point"},"properties":{"name":"Место захоронения 64 советских воинов, умерших от ран в госпиталях г. Свердловска в 1941-1945 гг.","id":75,"category":"Регионального значения"}},{"type":"Feature","geometry":{"id":132127,"coordinates":[60.57585322851741,56.828204150000005],"type":"Point"},"properties":{"name":"Могила Казанцева Д.И., селекционера","id":77,"category":"Регионального значения"}},{"type":"Feature","geometry":{"id":132128,"coordinates":[60.613389895467094,56.832689349999995],"type":"Point"},"properties":{"name":"Дом, во дворе которого находилась частная типография, где 22 апреля 1917 г. вышел первый номер газеты \"Уральский рабочий\" под названием \"Уральская правда\"","id":79,"category":"Регионального значения"}},{"type":"Feature","geometry":{"id":132129,"coordinates":[60.639343153268655,56.8483231],"type":"Point"},"properties":{"name":"Могила поэта А.Я. Коца","id":76,"category":"Регионального значения"}},{"type":"Feature","geometry":{"id":132130,"coordinates":[60.57585322851741,56.828204150000005],"type":"Point"},"properties":{"name":"Могила архитектора К.Т. Бабыкина","id":78,"category":"Регионального значения"}},{"type":"Feature","geometry":{"id":132131,"coordinates":[60.61191495158559,56.83362735],"type":"Point"},"properties":{"name":"Доходный дом Кузнецовой в стиле модерн","id":80,"category":"Регионального значения"}},{"type":"Feature","geometry":{"id":132228,"coordinates":[60.61192115657428,56.836175350000005],"type":"Point"},"properties":{"name":"Дом","id":371,"category":"Регионального значения"}},{"type":"Feature","geometry":{"id":132123,"coordinates":[60.622408204658726,56.8411294],"type":"Point"},"properties":{"name":"Универмаг","id":83,"category":"Федерального значения"}},{"type":"Feature","geometry":{"id":132136,"coordinates":[60.6222055,56.8408587],"type":"Point"},"properties":{"name":"Комплекс зданий \"Городок чекиста\"","id":90,"category":"Федерального значения"}},{"type":"Feature","geometry":{"id":132134,"coordinates":[60.63283714635213,56.8463747],"type":"Point"},"properties":{"name":"Здание, в котором в 1943 г. размещался Штаб 61 Гвардейской Свердловско-Львовской танковой бригады, сформированной из уральцев-добровольцев","id":315,"category":"Регионального значения"}},{"type":"Feature","geometry":{"id":132141,"coordinates":[60.61540418490587,56.88726275],"type":"Point"},"properties":{"name":"Дом жилой. Кинотеатр \"Заря\"","id":92,"category":"Местного (муниципального) значения"}},{"type":"Feature","geometry":{"id":132135,"coordinates":[60.60214715535668,56.85536865],"type":"Point"},"properties":{"name":"Дворец культуры железнодорожников с северным блоком","id":98,"category":"Регионального значения"}},{"type":"Feature","geometry":{"id":132137,"coordinates":[60.62022323045899,56.81168605],"type":"Point"},"properties":{"name":"Дом горного землемера Г.С. Ярутина","id":91,"category":"Регионального значения"}},{"type":"Feature","geometry":{"id":132140,"coordinates":[60.609093407914045,56.8376607],"type":"Point"},"properties":{"name":"Жилой дом Уралплана","id":94,"category":"Местного (муниципального) значения"}},{"type":"Feature","geometry":{"id":132138,"coordinates":[60.614027422429686,56.83913645],"type":"Point"},"properties":{"name":"Дом жилой","id":63,"category":"Регионального значения"}},{"type":"Feature","geometry":{"id":132139,"coordinates":[60.61203975,56.8334781],"type":"Point"},"properties":{"name":"Дом Г.С. Кудрина","id":95,"category":"Местного (муниципального) значения"}},{"type":"Feature","geometry":{"id":132146,"coordinates":[60.61441766989141,56.84009685],"type":"Point"},"properties":{"name":"Здание типографии издательства \"Уральский рабочий\"","id":107,"category":"Федерального значения"}},{"type":"Feature","geometry":{"id":132148,"coordinates":[60.594118153727884,56.8355664],"type":"Point"},"properties":{"name":"Дом городского головы Симанова как пример городского особняка второй половины XIX в.","id":101,"category":"Регионального значения"}},{"type":"Feature","geometry":{"id":132142,"coordinates":[60.59163457772797,56.836133],"type":"Point"},"properties":{"name":"Здание бывшей гостиницы \"Казань\" в 1894-1917 гг. центр мебельного производства М.Ф. Просвирина в г. Екатеринбурге","id":358,"category":"Регионального значения"}},{"type":"Feature","geometry":{"id":132143,"coordinates":[60.61265801525497,56.8339429],"type":"Point"},"properties":{"name":"Дом купца Суслова П.П.","id":103,"category":"Регионального значения"}},{"type":"Feature","geometry":{"id":132147,"coordinates":[60.60129573623668,56.83365335],"type":"Point"},"properties":{"name":"Дом купца Н.А. Грачева","id":68,"category":"Регионального значения"}},{"type":"Feature","geometry":{"id":132145,"coordinates":[60.609715512479156,56.830147600000004],"type":"Point"},"properties":{"name":"Приемный земский покой","id":102,"category":"Регионального значения"}},{"type":"Feature","geometry":{"id":132149,"coordinates":[60.609018,56.838573],"type":"Point"},"properties":{"name":"Дом Горсовета","id":105,"category":"Федерального значения"}},{"type":"Feature","geometry":{"id":132152,"coordinates":[60.569295108743546,56.83951675],"type":"Point"},"properties":{"name":"Дом Бревновых","id":158,"category":"Регионального значения"}},{"type":"Feature","geometry":{"id":132153,"coordinates":[60.612953880740925,56.831040099999996],"type":"Point"},"properties":{"name":"Дом Оленева Ф.В.","id":109,"category":"Регионального значения"}},{"type":"Feature","geometry":{"id":132154,"coordinates":[60.61397835679021,56.83051745],"type":"Point"},"properties":{"name":"Дом Размахина М.Я.","id":110,"category":"Регионального значения"}},{"type":"Feature","geometry":{"id":132155,"coordinates":[60.61176360429522,56.8341496],"type":"Point"},"properties":{"name":"Дом камнереза Трапезникова, как образец деревянного зодчества с кружевным орнаментом и узорной металлической изгородью","id":462,"category":"Регионального значения"}},{"type":"Feature","geometry":{"id":132156,"coordinates":[60.61211545216876,56.83316965],"type":"Point"},"properties":{"name":"Дом Мевиус В.Ф.","id":112,"category":"Регионального значения"}},{"type":"Feature","geometry":{"id":132157,"coordinates":[60.62847181100156,56.835889699999996],"type":"Point"},"properties":{"name":"Здание общественное","id":113,"category":"Регионального значения"}},{"type":"Feature","geometry":{"id":132158,"coordinates":[60.59086792864963,56.8361898],"type":"Point"},"properties":{"name":"Дом Я.Г. Делинина","id":114,"category":"Регионального значения"}},{"type":"Feature","geometry":{"id":132150,"coordinates":[60.592125549742576,56.835653050000005],"type":"Point"},"properties":{"name":"Дом Д.И. Белоусова","id":116,"category":"Регионального значения"}},{"type":"Feature","geometry":{"id":132151,"coordinates":[60.59369815,56.82898295],"type":"Point"},"properties":{"name":"Дом М.Ф. Медведева","id":117,"category":"Регионального значения"}},{"type":"Feature","geometry":{"id":132160,"coordinates":[60.600503187711865,56.8398524],"type":"Point"},"properties":{"name":"Здание Педагогического института (Дом купца И.Г. Пшеничникова)","id":119,"category":"Регионального значения"}},{"type":"Feature","geometry":{"id":132747,"coordinates":[60.613685022825464,56.82881935],"type":"Point"},"properties":{"name":"Дом","id":348,"category":"Регионального значения"}},{"type":"Feature","geometry":{"id":132291,"coordinates":[60.5925564,56.8415499],"type":"Point"},"properties":{"name":"Дом, где жил известный уральский краевед Афиногенов","id":267,"category":"Регионального значения"}},{"type":"Feature","geometry":{"id":132133,"coordinates":[60.609469163582695,56.83650575],"type":"Point"},"properties":{"name":"Дом врача С.С. Асса","id":361,"category":"Регионального значения"}},{"type":"Feature","geometry":{"id":132161,"coordinates":[60.61198659448267,56.822227299999994],"type":"Point"},"properties":{"name":"Усадьба Ошуркова","id":120,"category":"Федерального значения"}},{"type":"Feature","geometry":{"id":132163,"coordinates":[60.597483,56.827853],"type":"Point"},"properties":{"name":"Дом Фосфанова С.В.","id":617,"category":"Регионального значения"}},{"type":"Feature","geometry":{"id":132164,"coordinates":[60.58018599050892,56.83119245],"type":"Point"},"properties":{"name":"Дом юстиции","id":121,"category":"Регионального значения"}},{"type":"Feature","geometry":{"id":132167,"coordinates":[60.592929257159085,56.83347965],"type":"Point"},"properties":{"name":"Жилой дом","id":128,"category":"Регионального значения"}},{"type":"Feature","geometry":{"id":132169,"coordinates":[60.6073183,56.8346874],"type":"Point"},"properties":{"name":"Доходный дом","id":133,"category":"Регионального значения"}},{"type":"Feature","geometry":{"id":132171,"coordinates":[60.60980415358568,56.8358732],"type":"Point"},"properties":{"name":"Усадьба \"Товарищества А. Печенкина и К\"","id":431,"category":"Регионального значения"}},{"type":"Feature","geometry":{"id":132173,"coordinates":[60.60214395540069,56.83403495],"type":"Point"},"properties":{"name":"Здание бывшей городской думы","id":131,"category":"Регионального значения"}},{"type":"Feature","geometry":{"id":132166,"coordinates":[60.58865613854271,56.83599935],"type":"Point"},"properties":{"name":"Дом Ремезова Т.В.","id":129,"category":"Регионального значения"}},{"type":"Feature","geometry":{"id":132763,"coordinates":[60.5272610818845,56.812776299999996],"type":"Point"},"properties":{"name":"Широкореченский воинский мемориал. Место захоронения воинов, умерших от ран в госпиталях г. Свердловска","id":244,"category":"Регионального значения"}},{"type":"Feature","geometry":{"id":132159,"coordinates":[60.61569996880006,56.824180350000006],"type":"Point"},"properties":{"name":"Екатеринбургский земско-городской родильный дом","id":392,"category":"Регионального значения"}},{"type":"Feature","geometry":{"id":132172,"coordinates":[60.59970605382476,56.83361365],"type":"Point"},"properties":{"name":"Дом контор","id":130,"category":"Регионального значения"}},{"type":"Feature","geometry":{"id":132176,"coordinates":[60.61527750371442,56.82331815],"type":"Point"},"properties":{"name":"Жилой дом со сводами","id":140,"category":"Регионального значения"}},{"type":"Feature","geometry":{"id":132179,"coordinates":[60.61527750371442,56.82331815],"type":"Point"},"properties":{"name":"Ограда и ворота","id":136,"category":"Регионального значения"}},{"type":"Feature","geometry":{"id":132181,"coordinates":[60.58137491384129,56.83079455],"type":"Point"},"properties":{"name":"Дом жилой","id":135,"category":"Регионального значения"}},{"type":"Feature","geometry":{"id":132175,"coordinates":[60.61527750371442,56.82331815],"type":"Point"},"properties":{"name":"Сад","id":137,"category":"Регионального значения"}},{"type":"Feature","geometry":{"id":132182,"coordinates":[60.61527750371442,56.82331815],"type":"Point"},"properties":{"name":"Амбар деревянный двухярусный","id":138,"category":"Регионального значения"}},{"type":"Feature","geometry":{"id":132183,"coordinates":[60.61527750371442,56.82331815],"type":"Point"},"properties":{"name":"Т-образный флигель","id":139,"category":"Регионального значения"}},{"type":"Feature","geometry":{"id":132177,"coordinates":[60.60841961913876,56.8365938],"type":"Point"},"properties":{"name":"Баня","id":426,"category":"Регионального значения"}},{"type":"Feature","geometry":{"id":132178,"coordinates":[60.5851057266151,56.83763245],"type":"Point"},"properties":{"name":"Корпус пухоочистительной фабрики купца Г.Б. Перетца","id":437,"category":"Регионального значения"}},{"type":"Feature","geometry":{"id":132186,"coordinates":[60.61169884062609,56.82106265],"type":"Point"},"properties":{"name":"Ограда с воротами","id":148,"category":"Регионального значения"}},{"type":"Feature","geometry":{"id":132187,"coordinates":[60.58722999505703,56.839794100000006],"type":"Point"},"properties":{"name":"Дом К.М. Панова","id":123,"category":"Регионального значения"}},{"type":"Feature","geometry":{"id":132188,"coordinates":[60.55273423593357,56.8400788],"type":"Point"},"properties":{"name":"Господский дом в саду","id":159,"category":"Регионального значения"}},{"type":"Feature","geometry":{"id":132189,"coordinates":[60.6143975985474,56.82734695],"type":"Point"},"properties":{"name":"Церковь Святой Троицы (Рязановская)","id":149,"category":"Регионального значения"}},{"type":"Feature","geometry":{"id":132190,"coordinates":[60.61058355491995,56.828152849999995],"type":"Point"},"properties":{"name":"Дом Рязанова","id":150,"category":"Регионального значения"}},{"type":"Feature","geometry":{"id":132191,"coordinates":[60.61169884062609,56.82106265],"type":"Point"},"properties":{"name":"Каменный одноэтажный особняк конца XIX в.","id":146,"category":"Регионального значения"}},{"type":"Feature","geometry":{"id":132185,"coordinates":[60.61169884062609,56.82106265],"type":"Point"},"properties":{"name":"Усадьба Ошуркова М.М.","id":147,"category":"Регионального значения"}},{"type":"Feature","geometry":{"id":132301,"coordinates":[60.60589197703493,56.8516232],"type":"Point"},"properties":{"name":"Дом жилой с аркой","id":281,"category":"Регионального значения"}},{"type":"Feature","geometry":{"id":132193,"coordinates":[60.61000032724138,56.8198793],"type":"Point"},"properties":{"name":"Здание духовного ведомства Екатеринбургской епархии","id":152,"category":"Регионального значения"}},{"type":"Feature","geometry":{"id":132197,"coordinates":[60.61018098747087,56.827689750000005],"type":"Point"},"properties":{"name":"Дом Рязанова","id":154,"category":"Федерального значения"}},{"type":"Feature","geometry":{"id":132196,"coordinates":[60.62271301018393,56.84593135],"type":"Point"},"properties":{"name":"Жилой дом","id":208,"category":"Регионального значения"}},{"type":"Feature","geometry":{"id":132198,"coordinates":[60.5730812,56.838939],"type":"Point"},"properties":{"name":"Ворота","id":246,"category":"Регионального значения"}},{"type":"Feature","geometry":{"id":132162,"coordinates":[60.59731249643977,56.838559700000005],"type":"Point"},"properties":{"name":"Усадьба купца С.Е. Тупикова","id":292,"category":"Регионального значения"}},{"type":"Feature","geometry":{"id":132192,"coordinates":[60.58829859704953,56.837216749999996],"type":"Point"},"properties":{"name":"Ворота","id":521,"category":"Регионального значения"}},{"type":"Feature","geometry":{"id":132194,"coordinates":[60.59009113961916,56.83665205],"type":"Point"},"properties":{"name":"Дом мещанки И.Г. Салминой","id":156,"category":"Регионального значения"}},{"type":"Feature","geometry":{"id":132195,"coordinates":[60.61254571830301,56.8214593],"type":"Point"},"properties":{"name":"Усадьба И.Д. Баландина","id":211,"category":"Регионального значения"}},{"type":"Feature","geometry":{"id":132202,"coordinates":[60.6262826538186,56.84383085],"type":"Point"},"properties":{"name":"Дом жилой в стиле конструктивизма","id":166,"category":"Регионального значения"}},{"type":"Feature","geometry":{"id":132203,"coordinates":[60.583353,56.831822],"type":"Point"},"properties":{"name":"Здание земской школы","id":597,"category":"Регионального значения"}},{"type":"Feature","geometry":{"id":132201,"coordinates":[60.595804,56.836396],"type":"Point"},"properties":{"name":"Здание бывшей товарной биржи","id":684,"category":"Регионального значения"}},{"type":"Feature","geometry":{"id":132199,"coordinates":[60.613058845356235,56.83296385],"type":"Point"},"properties":{"name":"Дом купца Осокина К.Г.","id":160,"category":"Регионального значения"}},{"type":"Feature","geometry":{"id":132204,"coordinates":[60.6119125196684,56.8313265],"type":"Point"},"properties":{"name":"Здание Русского общества торговли аптекарскими товарами","id":163,"category":"Регионального значения"}},{"type":"Feature","geometry":{"id":132205,"coordinates":[60.6118482675144,56.84178195],"type":"Point"},"properties":{"name":"Концертный зал И.З. Маклецкого","id":168,"category":"Регионального значения"}},{"type":"Feature","geometry":{"id":132206,"coordinates":[60.62018918238069,56.843810500000004],"type":"Point"},"properties":{"name":"Окружной дом офицеров","id":164,"category":"Федерального значения"}},{"type":"Feature","geometry":{"id":132323,"coordinates":[60.556302585562165,56.839157650000004],"type":"Point"},"properties":{"name":"Церковь Успения Богоматери","id":313,"category":"Регионального значения"}},{"type":"Feature","geometry":{"id":132210,"coordinates":[60.592092,56.827088],"type":"Point"},"properties":{"name":"Жилой дом","id":642,"category":"Регионального значения"}},{"type":"Feature","geometry":{"id":132213,"coordinates":[60.597314,56.838728],"type":"Point"},"properties":{"name":"Склад","id":631,"category":"Регионального значения"}},{"type":"Feature","geometry":{"id":132208,"coordinates":[60.56956600210051,56.84126085],"type":"Point"},"properties":{"name":"Здание бывшего Петровского приюта","id":173,"category":"Регионального значения"}},{"type":"Feature","geometry":{"id":132215,"coordinates":[60.6595203490789,56.77806545],"type":"Point"},"properties":{"name":"Школа земская","id":172,"category":"Регионального значения"}},{"type":"Feature","geometry":{"id":132211,"coordinates":[60.6008586567029,56.83017005],"type":"Point"},"properties":{"name":"Дом купца И.М. Белинькова","id":176,"category":"Регионального значения"}},{"type":"Feature","geometry":{"id":132209,"coordinates":[60.59340015963294,56.8376523],"type":"Point"},"properties":{"name":"Дом И.Я. Рязанова. Управление НКВД по Свердловской области","id":174,"category":"Регионального значения"}},{"type":"Feature","geometry":{"id":132217,"coordinates":[60.580182,56.831231],"type":"Point"},"properties":{"name":"Городок юстиции, Дом Юстиции, 1932 год. Архитектор С.Е. Захаров","id":690,"category":"Регионального значения"}},{"type":"Feature","geometry":{"id":132214,"coordinates":[60.6087814774647,56.84002805],"type":"Point"},"properties":{"name":"Дом купца Ф.А. Михайлова","id":167,"category":"Регионального значения"}},{"type":"Feature","geometry":{"id":132220,"coordinates":[60.589871500370734,56.8345317],"type":"Point"},"properties":{"name":"Дом Рожнова И.Ф.","id":184,"category":"Регионального значения"}},{"type":"Feature","geometry":{"id":132221,"coordinates":[60.609834087993235,56.83681875],"type":"Point"},"properties":{"name":"Здание административное","id":185,"category":"Регионального значения"}},{"type":"Feature","geometry":{"id":132222,"coordinates":[60.6076373,56.834015],"type":"Point"},"properties":{"name":"Дом купца Крутикова Ф.И.","id":178,"category":"Регионального значения"}},{"type":"Feature","geometry":{"id":132223,"coordinates":[60.578485,56.835786],"type":"Point"},"properties":{"name":"Братская могила коммунаров","id":698,"category":"Регионального значения"}},{"type":"Feature","geometry":{"id":132219,"coordinates":[60.61030935430385,56.84088485],"type":"Point"},"properties":{"name":"Дом купца Андреева","id":183,"category":"Регионального значения"}},{"type":"Feature","geometry":{"id":132727,"coordinates":[60.6538482,56.8500119],"type":"Point"},"properties":{"name":"Здание бывшего лабораторного корпуса Уральского филиала АН СССР, где работали выдающиеся советские ученые","id":409,"category":"Регионального значения"}},{"type":"Feature","geometry":{"id":132231,"coordinates":[60.66098425,56.84462225],"type":"Point"},"properties":{"name":"Жилой дом архитектора О. Шоки","id":237,"category":"Регионального значения"}},{"type":"Feature","geometry":{"id":132232,"coordinates":[60.60961083050532,56.83608155],"type":"Point"},"properties":{"name":"Доходный дом Г.В. Уварова","id":162,"category":"Регионального значения"}},{"type":"Feature","geometry":{"id":132226,"coordinates":[60.588954900000004,56.8271485],"type":"Point"},"properties":{"name":"Жилой дом с башенками (модерн)","id":187,"category":"Регионального значения"}},{"type":"Feature","geometry":{"id":132233,"coordinates":[60.61509562319932,56.8342949],"type":"Point"},"properties":{"name":"Библиотека","id":189,"category":"Регионального значения"}},{"type":"Feature","geometry":{"id":132230,"coordinates":[60.6130614907687,56.8308504],"type":"Point"},"properties":{"name":"Дом К.В. Рейнфельда","id":192,"category":"Регионального значения"}},{"type":"Feature","geometry":{"id":132788,"coordinates":[60.611863389587725,56.84357935],"type":"Point"},"properties":{"name":"Корпус учебный","id":256,"category":"Регионального значения"}},{"type":"Feature","geometry":{"id":132229,"coordinates":[60.61513979182918,56.833762050000004],"type":"Point"},"properties":{"name":"Дом архитектора Григорьева в стиле модерн","id":188,"category":"Регионального значения"}},{"type":"Feature","geometry":{"id":132236,"coordinates":[60.614054031716734,56.82404915],"type":"Point"},"properties":{"name":"Усадебный дом в стиле классицизма","id":200,"category":"Регионального значения"}},{"type":"Feature","geometry":{"id":132238,"coordinates":[60.59446566034882,56.839325349999996],"type":"Point"},"properties":{"name":"Дом жилой","id":14,"category":"Регионального значения"}},{"type":"Feature","geometry":{"id":132240,"coordinates":[60.5730812,56.838939],"type":"Point"},"properties":{"name":"Комплекс жилых домов","id":245,"category":"Регионального значения"}},{"type":"Feature","geometry":{"id":132235,"coordinates":[60.614054031716734,56.82404915],"type":"Point"},"properties":{"name":"Флигель","id":202,"category":"Регионального значения"}},{"type":"Feature","geometry":{"id":132234,"coordinates":[60.60761546220938,56.8341589],"type":"Point"},"properties":{"name":"Дом И.А. Погудина","id":203,"category":"Регионального значения"}},{"type":"Feature","geometry":{"id":132239,"coordinates":[60.61141641999028,56.82191935],"type":"Point"},"properties":{"name":"Первый дом Е.М. Ошуркова","id":512,"category":"Регионального значения"}},{"type":"Feature","geometry":{"id":132729,"coordinates":[60.604287068508754,56.853271899999996],"type":"Point"},"properties":{"name":"Дом жилой","id":278,"category":"Регионального значения"}},{"type":"Feature","geometry":{"id":132242,"coordinates":[60.614054031716734,56.82404915],"type":"Point"},"properties":{"name":"Усадьба","id":201,"category":"Регионального значения"}},{"type":"Feature","geometry":{"id":132241,"coordinates":[60.613872699999995,56.8246491],"type":"Point"},"properties":{"name":"Комплекс медопивоваренного завода Гребенькова и Холкина","id":199,"category":"Регионального значения"}},{"type":"Feature","geometry":{"id":132249,"coordinates":[60.61439102417616,56.8253604],"type":"Point"},"properties":{"name":"Дом в стиле позднего русского классицизма","id":215,"category":"Регионального значения"}},{"type":"Feature","geometry":{"id":132250,"coordinates":[60.62271301018393,56.84593135],"type":"Point"},"properties":{"name":"Комплекс зданий бывшего медопивоваренного завода","id":205,"category":"Регионального значения"}},{"type":"Feature","geometry":{"id":132244,"coordinates":[60.61254571830301,56.8214593],"type":"Point"},"properties":{"name":"Двухэтажный каменный дом с мезонином","id":214,"category":"Регионального значения"}},{"type":"Feature","geometry":{"id":132247,"coordinates":[60.62271301018393,56.84593135],"type":"Point"},"properties":{"name":"Малый склад","id":207,"category":"Регионального значения"}},{"type":"Feature","geometry":{"id":132248,"coordinates":[60.62271301018393,56.84593135],"type":"Point"},"properties":{"name":"Большепролетный склад","id":209,"category":"Регионального значения"}},{"type":"Feature","geometry":{"id":132251,"coordinates":[60.62271301018393,56.84593135],"type":"Point"},"properties":{"name":"Винный склад","id":210,"category":"Регионального значения"}},{"type":"Feature","geometry":{"id":132790,"coordinates":[60.603907464199665,56.8544318],"type":"Point"},"properties":{"name":"Дом жилой с башней","id":279,"category":"Регионального значения"}},{"type":"Feature","geometry":{"id":132246,"coordinates":[60.62496719761391,56.83312015],"type":"Point"},"properties":{"name":"Загородная дача архитектора Малахова М.П.","id":27,"category":"Федерального значения"}},{"type":"Feature","geometry":{"id":132243,"coordinates":[60.61254571830301,56.8214593],"type":"Point"},"properties":{"name":"Территория сада","id":212,"category":"Регионального значения"}},{"type":"Feature","geometry":{"id":132257,"coordinates":[60.60801801469876,56.8332326],"type":"Point"},"properties":{"name":"Дом врача А.С. Пономарева","id":217,"category":"Регионального значения"}},{"type":"Feature","geometry":{"id":132259,"coordinates":[60.611636468033815,56.836708900000005],"type":"Point"},"properties":{"name":"Усадьба С.А. Строганова","id":220,"category":"Регионального значения"}},{"type":"Feature","geometry":{"id":132260,"coordinates":[60.611636468033815,56.836708900000005],"type":"Point"},"properties":{"name":"Флигель","id":222,"category":"Регионального значения"}},{"type":"Feature","geometry":{"id":132375,"coordinates":[60.611863389587725,56.84357935],"type":"Point"},"properties":{"name":"Корпус художественных мастерских","id":255,"category":"Регионального значения"}},{"type":"Feature","geometry":{"id":132380,"coordinates":[60.60224923617271,56.822654299999996],"type":"Point"},"properties":{"name":"Пансион женского епархиального училища","id":72,"category":"Регионального значения"}},{"type":"Feature","geometry":{"id":132253,"coordinates":[60.51246197503676,56.69163745],"type":"Point"},"properties":{"name":"Уличный фасад торгового дома купца А.Н. Захо","id":224,"category":"Регионального значения"}},{"type":"Feature","geometry":{"id":132252,"coordinates":[60.6088719,56.8421046],"type":"Point"},"properties":{"name":"Купеческий особняк, построен в классическом стиле, имеет интересные оконные проемы","id":219,"category":"Регионального значения"}},{"type":"Feature","geometry":{"id":132254,"coordinates":[60.611636468033815,56.836708900000005],"type":"Point"},"properties":{"name":"Жилой дом","id":221,"category":"Регионального значения"}},{"type":"Feature","geometry":{"id":132256,"coordinates":[60.592092,56.827088],"type":"Point"},"properties":{"name":"Городская усадьба","id":643,"category":"Регионального значения"}},{"type":"Feature","geometry":{"id":132266,"coordinates":[60.60781537841975,56.833769849999996],"type":"Point"},"properties":{"name":"Здание электростанции","id":328,"category":"Регионального значения"}},{"type":"Feature","geometry":{"id":132263,"coordinates":[60.61307957113648,56.82709615],"type":"Point"},"properties":{"name":"Ворота","id":234,"category":"Регионального значения"}},{"type":"Feature","geometry":{"id":132267,"coordinates":[60.61307957113648,56.82709615],"type":"Point"},"properties":{"name":"Дом","id":233,"category":"Регионального значения"}},{"type":"Feature","geometry":{"id":132268,"coordinates":[60.61307957113648,56.82709615],"type":"Point"},"properties":{"name":"Флигель","id":235,"category":"Регионального значения"}},{"type":"Feature","geometry":{"id":132741,"coordinates":[60.576005,56.83776],"type":"Point"},"properties":{"name":"Павильон западный","id":658,"category":"Регионального значения"}},{"type":"Feature","geometry":{"id":132265,"coordinates":[60.61140893545752,56.795521449999995],"type":"Point"},"properties":{"name":"Здание УНИХИМа","id":229,"category":"Регионального значения"}},{"type":"Feature","geometry":{"id":132261,"coordinates":[60.581276650064346,56.8390067],"type":"Point"},"properties":{"name":"Здание общества","id":227,"category":"Регионального значения"}},{"type":"Feature","geometry":{"id":132264,"coordinates":[60.581276650064346,56.8390067],"type":"Point"},"properties":{"name":"Здание лабораторий","id":228,"category":"Регионального значения"}},{"type":"Feature","geometry":{"id":132272,"coordinates":[60.595691983956556,56.83478515],"type":"Point"},"properties":{"name":"Дом горсовета № 5. (\"Дом коммуна\")","id":239,"category":"Регионального значения"}},{"type":"Feature","geometry":{"id":132271,"coordinates":[60.60920237261419,56.83723445],"type":"Point"},"properties":{"name":"Дом А.А. Дрозжилова","id":241,"category":"Регионального значения"}},{"type":"Feature","geometry":{"id":132274,"coordinates":[60.63662982029737,56.84529825],"type":"Point"},"properties":{"name":"Бани","id":240,"category":"Регионального значения"}},{"type":"Feature","geometry":{"id":132273,"coordinates":[60.60075958088703,56.8323889],"type":"Point"},"properties":{"name":"Лавка","id":38,"category":"Регионального значения"}},{"type":"Feature","geometry":{"id":132276,"coordinates":[60.572337956087466,56.893166699999995],"type":"Point"},"properties":{"name":"Водонапорная башня","id":242,"category":"Федерального значения"}},{"type":"Feature","geometry":{"id":132275,"coordinates":[60.613341511441575,56.8257123],"type":"Point"},"properties":{"name":"Здание земской управы, где 18 октября 1905 г. состоялось первое открытое выступление Я.М. Свердлова","id":238,"category":"Регионального значения"}},{"type":"Feature","geometry":{"id":132278,"coordinates":[60.614297736319834,56.8258806],"type":"Point"},"properties":{"name":"Дом Л.Н. Казанцевой","id":413,"category":"Регионального значения"}},{"type":"Feature","geometry":{"id":132280,"coordinates":[60.58548200363114,56.84324855],"type":"Point"},"properties":{"name":"Главный дом","id":249,"category":"Регионального значения"}},{"type":"Feature","geometry":{"id":132281,"coordinates":[60.58548200363114,56.84324855],"type":"Point"},"properties":{"name":"Флигель","id":250,"category":"Регионального значения"}},{"type":"Feature","geometry":{"id":132282,"coordinates":[60.58548200363114,56.84324855],"type":"Point"},"properties":{"name":"Усадьба Антипина П.А.","id":248,"category":"Регионального значения"}},{"type":"Feature","geometry":{"id":132283,"coordinates":[60.611515854756455,56.845470250000005],"type":"Point"},"properties":{"name":"Дом Харитонова","id":251,"category":"Федерального значения"}},{"type":"Feature","geometry":{"id":132752,"coordinates":[60.61192115657428,56.836175350000005],"type":"Point"},"properties":{"name":"Усадьба ротмистра Ф.А. Переяславцева","id":372,"category":"Регионального значения"}},{"type":"Feature","geometry":{"id":132284,"coordinates":[60.60871077642486,56.8291874],"type":"Point"},"properties":{"name":"Беседка-ротонда","id":262,"category":"Регионального значения"}},{"type":"Feature","geometry":{"id":132287,"coordinates":[60.651921,56.842059],"type":"Point"},"properties":{"name":"Корпус физико-технологического факультета","id":260,"category":"Регионального значения"}},{"type":"Feature","geometry":{"id":132100,"coordinates":[60.59066575,56.8345382],"type":"Point"},"properties":{"name":"Дом жилой с магазином (дом Телегиных)","id":51,"category":"Регионального значения"}},{"type":"Feature","geometry":{"id":132285,"coordinates":[60.651921,56.842059],"type":"Point"},"properties":{"name":"Здание Политехнического института","id":258,"category":"Федерального значения"}},{"type":"Feature","geometry":{"id":132121,"coordinates":[60.5659982,56.8386825],"type":"Point"},"properties":{"name":"Дом, в котором в 1907-1908 гг. находилась подпольная типография большевиков","id":81,"category":"Регионального значения"}},{"type":"Feature","geometry":{"id":132288,"coordinates":[60.61258298960974,56.8346303],"type":"Point"},"properties":{"name":"Флигель","id":415,"category":"Регионального значения"}},{"type":"Feature","geometry":{"id":132286,"coordinates":[60.61116079000547,56.842406350000005],"type":"Point"},"properties":{"name":"Дом, в котором в 1917 г. проходила Уральская областная конференция РСДРП (б)","id":261,"category":"Федерального значения"}},{"type":"Feature","geometry":{"id":132292,"coordinates":[60.6005048,56.8332074],"type":"Point"},"properties":{"name":"Дом жилой","id":305,"category":"Регионального значения"}},{"type":"Feature","geometry":{"id":132293,"coordinates":[60.60871077642486,56.8291874],"type":"Point"},"properties":{"name":"Двухэтажный каменный дом","id":265,"category":"Регионального значения"}},{"type":"Feature","geometry":{"id":132132,"coordinates":[60.58156957358338,56.8350739],"type":"Point"},"properties":{"name":"Институт физиотерапии и профзаболеваний","id":273,"category":"Регионального значения"}},{"type":"Feature","geometry":{"id":132294,"coordinates":[60.631168481261426,56.827000299999995],"type":"Point"},"properties":{"name":"Здание первой в городе обсерватории, где в 1880 г. бывал Д.И. Менделеев","id":269,"category":"Регионального значения"}},{"type":"Feature","geometry":{"id":132778,"coordinates":[60.60077040735315,56.85876925],"type":"Point"},"properties":{"name":"Ансамбль Екатеринбургского железнодорожного вокзала","id":502,"category":"Регионального значения"}},{"type":"Feature","geometry":{"id":132144,"coordinates":[60.61068161674669,56.8396748],"type":"Point"},"properties":{"name":"Здание первого городского театра","id":61,"category":"Регионального значения"}},{"type":"Feature","geometry":{"id":132297,"coordinates":[60.58851205,56.636390750000004],"type":"Point"},"properties":{"name":"Дом маркшейдера гиттен-фервалтера И.В. Полкова","id":528,"category":"Регионального значения"}},{"type":"Feature","geometry":{"id":132296,"coordinates":[60.616772,56.830142],"type":"Point"},"properties":{"name":"Дом А.Д. Андреевой","id":579,"category":"Регионального значения"}},{"type":"Feature","geometry":{"id":132298,"coordinates":[60.604475395198946,56.85003935],"type":"Point"},"properties":{"name":"Здание Гипротранса","id":274,"category":"Регионального значения"}},{"type":"Feature","geometry":{"id":132299,"coordinates":[60.59019225,56.83784285],"type":"Point"},"properties":{"name":"Дом купца И.И. Афанасьева","id":386,"category":"Регионального значения"}},{"type":"Feature","geometry":{"id":132302,"coordinates":[60.60552956030666,56.8527298],"type":"Point"},"properties":{"name":"Дом жилой","id":282,"category":"Регионального значения"}},{"type":"Feature","geometry":{"id":132303,"coordinates":[60.60530080933268,56.853469450000006],"type":"Point"},"properties":{"name":"Дом жилой","id":283,"category":"Регионального значения"}},{"type":"Feature","geometry":{"id":132304,"coordinates":[60.60506183231525,56.8542654],"type":"Point"},"properties":{"name":"Дом жилой","id":284,"category":"Регионального значения"}},{"type":"Feature","geometry":{"id":132305,"coordinates":[60.60486706416577,56.85483855],"type":"Point"},"properties":{"name":"Дом жилой","id":285,"category":"Регионального значения"}},{"type":"Feature","geometry":{"id":132300,"coordinates":[60.60461197858344,56.8555279],"type":"Point"},"properties":{"name":"Дом жилой","id":286,"category":"Регионального значения"}},{"type":"Feature","geometry":{"id":132780,"coordinates":[60.59722221418488,56.837862349999995],"type":"Point"},"properties":{"name":"Памятник Ленину В.И.","id":359,"category":"Регионального значения"}},{"type":"Feature","geometry":{"id":132310,"coordinates":[60.822368,56.773908],"type":"Point"},"properties":{"name":"Дом, в котором с 1910 г. жил в летнее время и работал художник Л.В. Туржанский","id":649,"category":"Регионального значения"}},{"type":"Feature","geometry":{"id":132307,"coordinates":[60.597769603145835,56.83945595],"type":"Point"},"properties":{"name":"Дом Уралстройкоопхоза","id":295,"category":"Регионального значения"}},{"type":"Feature","geometry":{"id":132312,"coordinates":[60.51192758368465,56.6925753],"type":"Point"},"properties":{"name":"Дом жилой","id":288,"category":"Регионального значения"}},{"type":"Feature","geometry":{"id":132311,"coordinates":[60.59787873416083,56.83905035],"type":"Point"},"properties":{"name":"Магазин","id":290,"category":"Регионального значения"}},{"type":"Feature","geometry":{"id":132308,"coordinates":[60.59787873416083,56.83905035],"type":"Point"},"properties":{"name":"Флигель","id":289,"category":"Регионального значения"}},{"type":"Feature","geometry":{"id":132313,"coordinates":[60.588078,56.887536],"type":"Point"},"properties":{"name":"Дом жилой","id":660,"category":"Регионального значения"}},{"type":"Feature","geometry":{"id":132314,"coordinates":[60.607150654619375,56.84248585],"type":"Point"},"properties":{"name":"Дом, где родился писатель-демократ Ф.М. Решетников","id":293,"category":"Регионального значения"}},{"type":"Feature","geometry":{"id":132794,"coordinates":[60.613685022825464,56.82881935],"type":"Point"},"properties":{"name":"Ограда кирпичная с воротами","id":347,"category":"Регионального значения"}},{"type":"Feature","geometry":{"id":132165,"coordinates":[60.62550548526708,56.8008989],"type":"Point"},"properties":{"name":"Дом с мезонином","id":384,"category":"Регионального значения"}},{"type":"Feature","geometry":{"id":132316,"coordinates":[60.588268653049546,56.83498745],"type":"Point"},"properties":{"name":"Дом жилой","id":341,"category":"Регионального значения"}},{"type":"Feature","geometry":{"id":132168,"coordinates":[60.612402924534734,56.83235445],"type":"Point"},"properties":{"name":"Дом А.М. Фомина","id":126,"category":"Регионального значения"}},{"type":"Feature","geometry":{"id":132319,"coordinates":[60.6004107878927,56.8313529],"type":"Point"},"properties":{"name":"Дом купца Иванова В.Н.","id":303,"category":"Регионального значения"}},{"type":"Feature","geometry":{"id":132317,"coordinates":[60.6097869110809,56.832908599999996],"type":"Point"},"properties":{"name":"Доходный дом в стиле \"а ля Рюс\"","id":301,"category":"Регионального значения"}},{"type":"Feature","geometry":{"id":132318,"coordinates":[60.61077091596917,56.830310600000004],"type":"Point"},"properties":{"name":"Главный жилой дом усадьбы Рейнфельд","id":302,"category":"Регионального значения"}},{"type":"Feature","geometry":{"id":132320,"coordinates":[60.60872290225643,56.83478335],"type":"Point"},"properties":{"name":"Первая явочная квартира Я.М. Свердлова","id":298,"category":"Регионального значения"}},{"type":"Feature","geometry":{"id":132324,"coordinates":[60.55085301102153,56.840093949999996],"type":"Point"},"properties":{"name":"Особняк","id":312,"category":"Регионального значения"}},{"type":"Feature","geometry":{"id":132322,"coordinates":[60.5925564,56.8415499],"type":"Point"},"properties":{"name":"Дом ювелира И.К. Афиногенова","id":309,"category":"Регионального значения"}},{"type":"Feature","geometry":{"id":132325,"coordinates":[60.611415947654464,56.84072485],"type":"Point"},"properties":{"name":"Дом, в котором в 1905 г. находилась нелегальная школа партийных пропагандистов, организованная Свердловым Яковым Михайловичем.В доме – мемориальный музей Я.М. Свердлова","id":314,"category":"Федерального значения"}},{"type":"Feature","geometry":{"id":132326,"coordinates":[60.59559892707131,56.830604449999996],"type":"Point"},"properties":{"name":"Мастерские в кирпичном стиле","id":310,"category":"Регионального значения"}},{"type":"Feature","geometry":{"id":132174,"coordinates":[60.6056733310292,56.83631405],"type":"Point"},"properties":{"name":"Дом чертежников","id":492,"category":"Федерального значения"}},{"type":"Feature","geometry":{"id":132321,"coordinates":[60.56497285454883,56.839986350000004],"type":"Point"},"properties":{"name":"Здание общественное","id":311,"category":"Регионального значения"}},{"type":"Feature","geometry":{"id":132787,"coordinates":[60.613100847885846,56.836032599999996],"type":"Point"},"properties":{"name":"Жилой флигель","id":376,"category":"Регионального значения"}},{"type":"Feature","geometry":{"id":132800,"coordinates":[60.591793,56.889938],"type":"Point"},"properties":{"name":"Дом жилой","id":590,"category":"Местного (муниципального) значения"}},{"type":"Feature","geometry":{"id":132262,"coordinates":[60.61662936394343,56.8387992],"type":"Point"},"properties":{"name":"Здание Оперного театра, в котором 8 ноября (26 октября) 1917 г. на открытом заседании Екатеринбургский Совет рабочих и солдатских депутатов провозгласил установление советской власти в городе и на Урале","id":64,"category":"Федерального значения"}},{"type":"Feature","geometry":{"id":132329,"coordinates":[60.58494536818256,56.842978200000005],"type":"Point"},"properties":{"name":"Ворота и ограда","id":322,"category":"Регионального значения"}},{"type":"Feature","geometry":{"id":132330,"coordinates":[60.58494536818256,56.842978200000005],"type":"Point"},"properties":{"name":"Металлическое ограждение палисадника","id":323,"category":"Регионального значения"}},{"type":"Feature","geometry":{"id":132331,"coordinates":[60.58678951209541,56.84267065],"type":"Point"},"properties":{"name":"Усадьба первого на Урале садовода-селекционера Д.И. Казанцева","id":324,"category":"Регионального значения"}},{"type":"Feature","geometry":{"id":132332,"coordinates":[60.600090853161774,56.844860999999995],"type":"Point"},"properties":{"name":"Спортивный комплекс \"Динамо\"","id":316,"category":"Федерального значения"}},{"type":"Feature","geometry":{"id":132333,"coordinates":[60.58494536818256,56.842978200000005],"type":"Point"},"properties":{"name":"Двухэтажный каменный жилой дом","id":321,"category":"Регионального значения"}},{"type":"Feature","geometry":{"id":132334,"coordinates":[60.600090853161774,56.844860999999995],"type":"Point"},"properties":{"name":"Водная станция","id":317,"category":"Федерального значения"}},{"type":"Feature","geometry":{"id":132335,"coordinates":[60.600090853161774,56.844860999999995],"type":"Point"},"properties":{"name":"Стадион","id":318,"category":"Федерального значения"}},{"type":"Feature","geometry":{"id":132327,"coordinates":[60.584578181963664,56.842785000000006],"type":"Point"},"properties":{"name":"Хозпостройки (перестроены)","id":319,"category":"Регионального значения"}},{"type":"Feature","geometry":{"id":132328,"coordinates":[60.58494536818256,56.842978200000005],"type":"Point"},"properties":{"name":"Усадьба Жолобова","id":320,"category":"Регионального значения"}},{"type":"Feature","geometry":{"id":132180,"coordinates":[60.58829859704953,56.837216749999996],"type":"Point"},"properties":{"name":"Алексеевское реальное училище","id":496,"category":"Регионального значения"}},{"type":"Feature","geometry":{"id":132338,"coordinates":[60.58851205,56.636390750000004],"type":"Point"},"properties":{"name":"Усадьба","id":534,"category":"Регионального значения"}},{"type":"Feature","geometry":{"id":132184,"coordinates":[60.60949474691436,56.8436776],"type":"Point"},"properties":{"name":"Дом А.А.Зотова","id":10,"category":"Регионального значения"}},{"type":"Feature","geometry":{"id":132339,"coordinates":[60.59363134118645,56.8291387],"type":"Point"},"properties":{"name":"Дом, где с 1931-1962 гг. жил художник И.К. Слюсарев","id":333,"category":"Регионального значения"}},{"type":"Feature","geometry":{"id":132341,"coordinates":[60.60781537841975,56.833769849999996],"type":"Point"},"properties":{"name":"Дом служащих электростанции","id":329,"category":"Регионального значения"}},{"type":"Feature","geometry":{"id":132277,"coordinates":[60.62301913207547,56.8244012],"type":"Point"},"properties":{"name":"Дом мещанина М.И. Шамшурина","id":181,"category":"Регионального значения"}},{"type":"Feature","geometry":{"id":132340,"coordinates":[60.58678951209541,56.84267065],"type":"Point"},"properties":{"name":"Плодовый сад","id":326,"category":"Регионального значения"}},{"type":"Feature","geometry":{"id":132207,"coordinates":[60.600323500447814,56.8315663],"type":"Point"},"properties":{"name":"Дом Бухонина И.Л. и лавка","id":175,"category":"Регионального значения"}},{"type":"Feature","geometry":{"id":132212,"coordinates":[60.60927643003575,56.84083615],"type":"Point"},"properties":{"name":"Дом дворянки Е.О. Селивановой","id":169,"category":"Регионального значения"}},{"type":"Feature","geometry":{"id":132344,"coordinates":[60.66078803724986,56.880104349999996],"type":"Point"},"properties":{"name":"Могила ювелира В.Г. Рощина","id":339,"category":"Регионального значения"}},{"type":"Feature","geometry":{"id":132345,"coordinates":[60.60321117288902,56.8352028],"type":"Point"},"properties":{"name":"Госпиталь Екатеринбургского завода, где состоялось первое театрализованное представление","id":416,"category":"Регионального значения"}},{"type":"Feature","geometry":{"id":132200,"coordinates":[60.61254253077676,56.8343771],"type":"Point"},"properties":{"name":"Особняк В.А. Бибикова","id":165,"category":"Регионального значения"}},{"type":"Feature","geometry":{"id":132216,"coordinates":[60.606874261123934,56.83400035],"type":"Point"},"properties":{"name":"Дом С.Я. Закожурникова","id":180,"category":"Регионального значения"}},{"type":"Feature","geometry":{"id":132309,"coordinates":[60.60767408212535,56.8414284],"type":"Point"},"properties":{"name":"Здание Страховой кассы","id":335,"category":"Регионального значения"}},{"type":"Feature","geometry":{"id":132487,"coordinates":[60.5896311,56.6374253],"type":"Point"},"properties":{"name":"Здание банка","id":525,"category":"Регионального значения"}},{"type":"Feature","geometry":{"id":132350,"coordinates":[60.602220223434564,56.8326725],"type":"Point"},"properties":{"name":"Особняк И.М. Федорова","id":99,"category":"Регионального значения"}},{"type":"Feature","geometry":{"id":132347,"coordinates":[60.60756912623651,56.854889549999996],"type":"Point"},"properties":{"name":"Каменные столярные мастерские","id":346,"category":"Регионального значения"}},{"type":"Feature","geometry":{"id":132351,"coordinates":[60.60756912623651,56.854889549999996],"type":"Point"},"properties":{"name":"Комплекс мельницы Борчанинова-Певушина","id":343,"category":"Регионального значения"}},{"type":"Feature","geometry":{"id":132352,"coordinates":[60.600899749999996,56.829771199999996],"type":"Point"},"properties":{"name":"Дом мещанки А.С. Калашниковой","id":190,"category":"Регионального значения"}},{"type":"Feature","geometry":{"id":132353,"coordinates":[60.61002865110132,56.829765800000004],"type":"Point"},"properties":{"name":"Дом Рейнфельд Л.Ф.","id":357,"category":"Регионального значения"}},{"type":"Feature","geometry":{"id":132354,"coordinates":[60.60756912623651,56.854889549999996],"type":"Point"},"properties":{"name":"Здание проходной","id":345,"category":"Регионального значения"}},{"type":"Feature","geometry":{"id":132478,"coordinates":[60.62290885250573,56.842467],"type":"Point"},"properties":{"name":"Жилой дом","id":514,"category":"Федерального значения"}},{"type":"Feature","geometry":{"id":132349,"coordinates":[60.606149396667334,56.84259835],"type":"Point"},"properties":{"name":"Дом фабриканта, богатый художественной лепкой во внутренних помещениях","id":28,"category":"Регионального значения"}},{"type":"Feature","geometry":{"id":132343,"coordinates":[60.586623298756784,56.839597749999996],"type":"Point"},"properties":{"name":"Дом купцов Агафуровых","id":340,"category":"Регионального значения"}},{"type":"Feature","geometry":{"id":132357,"coordinates":[60.575800638420006,56.832941149999996],"type":"Point"},"properties":{"name":"Институт медицинский","id":352,"category":"Регионального значения"}},{"type":"Feature","geometry":{"id":132358,"coordinates":[60.61362625773607,56.84257425],"type":"Point"},"properties":{"name":"Ограда с воротами","id":429,"category":"Регионального значения"}},{"type":"Feature","geometry":{"id":132359,"coordinates":[60.61527750371442,56.82331815],"type":"Point"},"properties":{"name":"Усадьба Беленкова","id":141,"category":"Регионального значения"}},{"type":"Feature","geometry":{"id":132356,"coordinates":[60.61295045,56.8367055],"type":"Point"},"properties":{"name":"Бюст Ф.М. Решетникова","id":382,"category":"Регионального значения"}},{"type":"Feature","geometry":{"id":132360,"coordinates":[60.63060689351554,56.89267435],"type":"Point"},"properties":{"name":"Дворец культуры завода Уралэлектротяжмаш","id":353,"category":"Регионального значения"}},{"type":"Feature","geometry":{"id":132361,"coordinates":[60.59171811934391,56.835960400000005],"type":"Point"},"properties":{"name":"Дом Калашникова А.Д.","id":354,"category":"Регионального значения"}},{"type":"Feature","geometry":{"id":132362,"coordinates":[60.59159399877748,56.84533275],"type":"Point"},"properties":{"name":"Дом, в котором в 1927 г. жил писатель Аркадий Гайдар (Голиков)","id":351,"category":"Регионального значения"}},{"type":"Feature","geometry":{"id":132494,"coordinates":[60.58851205,56.636390750000004],"type":"Point"},"properties":{"name":"Ограда","id":530,"category":"Регионального значения"}},{"type":"Feature","geometry":{"id":132365,"coordinates":[60.58812735,56.8375591],"type":"Point"},"properties":{"name":"Флигель","id":560,"category":"Регионального значения"}},{"type":"Feature","geometry":{"id":132366,"coordinates":[60.600556,56.831063],"type":"Point"},"properties":{"name":"Доходный дом купца Е.И. Первушина","id":646,"category":"Регионального значения"}},{"type":"Feature","geometry":{"id":132364,"coordinates":[60.60798694600605,56.836340699999994],"type":"Point"},"properties":{"name":"Дом П.Е. Загайнова","id":362,"category":"Регионального значения"}},{"type":"Feature","geometry":{"id":132367,"coordinates":[60.60852815434553,56.83622335],"type":"Point"},"properties":{"name":"Здание \"лечебницы врачей-специалистов\"","id":363,"category":"Регионального значения"}},{"type":"Feature","geometry":{"id":132224,"coordinates":[60.602551261668296,56.82216405],"type":"Point"},"properties":{"name":"Административно-учебное здание","id":182,"category":"Регионального значения"}},{"type":"Feature","geometry":{"id":132225,"coordinates":[60.59034756975487,56.8314231],"type":"Point"},"properties":{"name":"Дом жилой","id":194,"category":"Регионального значения"}},{"type":"Feature","geometry":{"id":132368,"coordinates":[60.6183829745557,56.83191375],"type":"Point"},"properties":{"name":"Каменная ограда и ворота","id":365,"category":"Регионального значения"}},{"type":"Feature","geometry":{"id":132469,"coordinates":[60.5896311,56.6374253],"type":"Point"},"properties":{"name":"Ворота","id":510,"category":"Регионального значения"}},{"type":"Feature","geometry":{"id":132370,"coordinates":[60.69342568149205,56.75213235],"type":"Point"},"properties":{"name":"Клуб спортивно-технический","id":369,"category":"Регионального значения"}},{"type":"Feature","geometry":{"id":132371,"coordinates":[60.6362146582145,56.842713],"type":"Point"},"properties":{"name":"Дом жилой","id":394,"category":"Регионального значения"}},{"type":"Feature","geometry":{"id":132227,"coordinates":[60.61345371589189,56.8321502],"type":"Point"},"properties":{"name":"Дом К.В. Лукина","id":191,"category":"Регионального значения"}},{"type":"Feature","geometry":{"id":132237,"coordinates":[60.60949474691436,56.8436776],"type":"Point"},"properties":{"name":"Особняк фабриканта И.Ф. Круковского","id":66,"category":"Регионального значения"}},{"type":"Feature","geometry":{"id":132369,"coordinates":[60.61291632121821,56.8337834],"type":"Point"},"properties":{"name":"Дом купца С.И. Лопатина","id":104,"category":"Регионального значения"}},{"type":"Feature","geometry":{"id":132372,"coordinates":[60.6183829745557,56.83191375],"type":"Point"},"properties":{"name":"Усадьба Шумкова","id":368,"category":"Регионального значения"}},{"type":"Feature","geometry":{"id":132245,"coordinates":[60.61295045,56.8367055],"type":"Point"},"properties":{"name":"Первая городская публичная библиотека им В.Г. Белинского","id":379,"category":"Регионального значения"}},{"type":"Feature","geometry":{"id":132378,"coordinates":[60.613100847885846,56.836032599999996],"type":"Point"},"properties":{"name":"Двухэтажный полукаменный лечебный корпус","id":377,"category":"Регионального значения"}},{"type":"Feature","geometry":{"id":132581,"coordinates":[60.576005,56.83776],"type":"Point"},"properties":{"name":"Флигель","id":655,"category":"Регионального значения"}},{"type":"Feature","geometry":{"id":132374,"coordinates":[60.61295045,56.8367055],"type":"Point"},"properties":{"name":"Бюст В.Г. Белинского","id":380,"category":"Регионального значения"}},{"type":"Feature","geometry":{"id":132376,"coordinates":[60.61295045,56.8367055],"type":"Point"},"properties":{"name":"Бюст Д.Н. Мамина-Сибиряка","id":381,"category":"Регионального значения"}},{"type":"Feature","geometry":{"id":132377,"coordinates":[60.613100847885846,56.836032599999996],"type":"Point"},"properties":{"name":"Дом и больница доктора Сяно","id":378,"category":"Регионального значения"}},{"type":"Feature","geometry":{"id":132577,"coordinates":[60.693486,56.74952],"type":"Point"},"properties":{"name":"Здание конторы Нижне-Исетского завода","id":647,"category":"Федерального значения"}},{"type":"Feature","geometry":{"id":132381,"coordinates":[60.606997,56.830049],"type":"Point"},"properties":{"name":"Дом Клементьевой, где в 1905 г. был тайный склад оружия","id":594,"category":"Регионального значения"}},{"type":"Feature","geometry":{"id":132255,"coordinates":[60.611229654266744,56.83506615],"type":"Point"},"properties":{"name":"\"Американская гостиница\" купца П.В. Холкина","id":197,"category":"Регионального значения"}},{"type":"Feature","geometry":{"id":132379,"coordinates":[60.59778,56.826828],"type":"Point"},"properties":{"name":"Доходный дом М.М. Денисова","id":574,"category":"Регионального значения"}},{"type":"Feature","geometry":{"id":132382,"coordinates":[60.609925,56.834954],"type":"Point"},"properties":{"name":"Дом жилой с магазином","id":678,"category":"Регионального значения"}},{"type":"Feature","geometry":{"id":132258,"coordinates":[60.5896311,56.6374253],"type":"Point"},"properties":{"name":"Здание банка","id":526,"category":"Регионального значения"}},{"type":"Feature","geometry":{"id":132384,"coordinates":[60.60700303609326,56.83911325],"type":"Point"},"properties":{"name":"Здание аптеки горного ведомства","id":106,"category":"Федерального значения"}},{"type":"Feature","geometry":{"id":132386,"coordinates":[60.63496972699909,56.842432349999996],"type":"Point"},"properties":{"name":"Техникум политехнический","id":393,"category":"Регионального значения"}},{"type":"Feature","geometry":{"id":132523,"coordinates":[60.592581218028215,56.8412658],"type":"Point"},"properties":{"name":"Дом Петровых","id":307,"category":"Регионального значения"}},{"type":"Feature","geometry":{"id":132385,"coordinates":[60.58687615064401,56.8390146],"type":"Point"},"properties":{"name":"Дом купцов Агафуровых","id":125,"category":"Регионального значения"}},{"type":"Feature","geometry":{"id":132383,"coordinates":[60.605991345416086,56.8344301],"type":"Point"},"properties":{"name":"Здание гостиницы \"Эрмитаж\", в котором в 1928 г. останавливался В.В. Маяковский","id":132,"category":"Регионального значения"}},{"type":"Feature","geometry":{"id":132389,"coordinates":[60.61830453063347,56.828364199999996],"type":"Point"},"properties":{"name":"Комплекс жилых зданий","id":400,"category":"Регионального значения"}},{"type":"Feature","geometry":{"id":132388,"coordinates":[60.64459579788078,56.8436381],"type":"Point"},"properties":{"name":"Дом жилой","id":399,"category":"Регионального значения"}},{"type":"Feature","geometry":{"id":132390,"coordinates":[60.62114049395729,56.827729649999995],"type":"Point"},"properties":{"name":"Жилой дом","id":402,"category":"Регионального значения"}},{"type":"Feature","geometry":{"id":132391,"coordinates":[60.58908485395867,56.88733995],"type":"Point"},"properties":{"name":"Дом жилой","id":403,"category":"Регионального значения"}},{"type":"Feature","geometry":{"id":132392,"coordinates":[60.599997150124686,56.8319272],"type":"Point"},"properties":{"name":"Лавка","id":404,"category":"Регионального значения"}},{"type":"Feature","geometry":{"id":132393,"coordinates":[60.59846504227981,56.8320799],"type":"Point"},"properties":{"name":"Лавка","id":405,"category":"Регионального значения"}},{"type":"Feature","geometry":{"id":132394,"coordinates":[60.60513409129766,56.84335685],"type":"Point"},"properties":{"name":"Двухэтажный дом в \"кирпичном стиле\"","id":406,"category":"Регионального значения"}},{"type":"Feature","geometry":{"id":132395,"coordinates":[60.63956483694168,56.84276175],"type":"Point"},"properties":{"name":"Дом жилой","id":396,"category":"Регионального значения"}},{"type":"Feature","geometry":{"id":132396,"coordinates":[60.64108553531375,56.8438684],"type":"Point"},"properties":{"name":"Здание административное","id":398,"category":"Регионального значения"}},{"type":"Feature","geometry":{"id":132401,"coordinates":[60.606168,56.857285],"type":"Point"},"properties":{"name":"Памятник Уральскому добровольческому танковому корпусу","id":700,"category":"Федерального значения"}},{"type":"Feature","geometry":{"id":132269,"coordinates":[60.59722221418488,56.837862349999995],"type":"Point"},"properties":{"name":"Площадь 1905 года, как место революционных событий города","id":243,"category":"Регионального значения"}},{"type":"Feature","geometry":{"id":132270,"coordinates":[60.61569996880006,56.824180350000006],"type":"Point"},"properties":{"name":"Ворота","id":387,"category":"Регионального значения"}},{"type":"Feature","geometry":{"id":132399,"coordinates":[60.5959779,56.8265287],"type":"Point"},"properties":{"name":"Геологический музей Уральского горно-геологического университета","id":151,"category":"Регионального значения"}},{"type":"Feature","geometry":{"id":132400,"coordinates":[60.648099240319524,56.82485485],"type":"Point"},"properties":{"name":"Церковь","id":412,"category":"Регионального значения"}},{"type":"Feature","geometry":{"id":132545,"coordinates":[60.61050133664189,56.837318749999994],"type":"Point"},"properties":{"name":"Ансамбль первой женской гимназии","id":375,"category":"Регионального значения"}},{"type":"Feature","geometry":{"id":132404,"coordinates":[60.60841961913876,56.8365938],"type":"Point"},"properties":{"name":"Флигель","id":424,"category":"Регионального значения"}},{"type":"Feature","geometry":{"id":132405,"coordinates":[60.60841961913876,56.8365938],"type":"Point"},"properties":{"name":"Конюшня","id":425,"category":"Регионального значения"}},{"type":"Feature","geometry":{"id":132403,"coordinates":[60.60841961913876,56.8365938],"type":"Point"},"properties":{"name":"Гостиница","id":423,"category":"Регионального значения"}},{"type":"Feature","geometry":{"id":132408,"coordinates":[60.625583,56.832359],"type":"Point"},"properties":{"name":"Дом, в котором в июне 1917 г. помещалась первая легальная большевистская типография \"Прибой\", с 6 сентября 1917 г. печаталась газета \"Уральский рабочий\"","id":589,"category":"Регионального значения"}},{"type":"Feature","geometry":{"id":132409,"coordinates":[60.58945994606937,56.842466],"type":"Point"},"properties":{"name":"Ограда палисадника","id":421,"category":"Регионального значения"}},{"type":"Feature","geometry":{"id":132410,"coordinates":[60.60841961913876,56.8365938],"type":"Point"},"properties":{"name":"Гостиница \"Эрмитаж\" В.Г. Черепанова","id":422,"category":"Регионального значения"}},{"type":"Feature","geometry":{"id":132406,"coordinates":[60.60824080775194,56.8307025],"type":"Point"},"properties":{"name":"Особняк в стиле позднего классицизма","id":417,"category":"Регионального значения"}},{"type":"Feature","geometry":{"id":132407,"coordinates":[60.61757363966613,56.820943],"type":"Point"},"properties":{"name":"Никольская старообрядческая церковь","id":419,"category":"Регионального значения"}},{"type":"Feature","geometry":{"id":132415,"coordinates":[60.61362625773607,56.84257425],"type":"Point"},"properties":{"name":"Гостиница","id":428,"category":"Регионального значения"}},{"type":"Feature","geometry":{"id":132416,"coordinates":[60.62042711333923,56.833847000000006],"type":"Point"},"properties":{"name":"Бывший дом Филитц","id":433,"category":"Регионального значения"}},{"type":"Feature","geometry":{"id":132417,"coordinates":[60.62042711333923,56.833847000000006],"type":"Point"},"properties":{"name":"Усадьба Филитц","id":434,"category":"Регионального значения"}},{"type":"Feature","geometry":{"id":132279,"coordinates":[60.604567164411506,56.85232465],"type":"Point"},"properties":{"name":"Дом жилой","id":275,"category":"Регионального значения"}},{"type":"Feature","geometry":{"id":132411,"coordinates":[60.60973818986982,56.83250675],"type":"Point"},"properties":{"name":"Дом Кругляшовых","id":430,"category":"Регионального значения"}},{"type":"Feature","geometry":{"id":132582,"coordinates":[60.576373,56.837386],"type":"Point"},"properties":{"name":"Павильон восточный","id":656,"category":"Регионального значения"}},{"type":"Feature","geometry":{"id":132413,"coordinates":[60.62042711333923,56.833847000000006],"type":"Point"},"properties":{"name":"Ограда палисадника","id":435,"category":"Регионального значения"}},{"type":"Feature","geometry":{"id":132414,"coordinates":[60.62042711333923,56.833847000000006],"type":"Point"},"properties":{"name":"Территория сада с прудом","id":436,"category":"Регионального значения"}},{"type":"Feature","geometry":{"id":132412,"coordinates":[60.60980415358568,56.8358732],"type":"Point"},"properties":{"name":"Дом с мансардой","id":432,"category":"Регионального значения"}},{"type":"Feature","geometry":{"id":132424,"coordinates":[60.5901627,56.63698615],"type":"Point"},"properties":{"name":"Корпус Д","id":446,"category":"Регионального значения"}},{"type":"Feature","geometry":{"id":132420,"coordinates":[60.5901627,56.63698615],"type":"Point"},"properties":{"name":"Корпус В (3 секции)","id":444,"category":"Регионального значения"}},{"type":"Feature","geometry":{"id":132419,"coordinates":[60.5901627,56.63698615],"type":"Point"},"properties":{"name":"Корпус-вставка","id":447,"category":"Регионального значения"}},{"type":"Feature","geometry":{"id":132588,"coordinates":[60.581529,56.84263],"type":"Point"},"properties":{"name":"Флигель","id":599,"category":"Регионального значения"}},{"type":"Feature","geometry":{"id":132648,"coordinates":[60.599069,56.821767],"type":"Point"},"properties":{"name":"Собор","id":755,"category":"Федерального значения"}},{"type":"Feature","geometry":{"id":132423,"coordinates":[60.5901627,56.63698615],"type":"Point"},"properties":{"name":"Корпус А (4 секции)","id":442,"category":"Регионального значения"}},{"type":"Feature","geometry":{"id":132289,"coordinates":[60.5816533015808,56.8343167],"type":"Point"},"properties":{"name":"Общежитие и лаборатория","id":271,"category":"Регионального значения"}},{"type":"Feature","geometry":{"id":132290,"coordinates":[60.55619330230811,56.83772415],"type":"Point"},"properties":{"name":"Дом притча Успенской церкви","id":268,"category":"Регионального значения"}},{"type":"Feature","geometry":{"id":132421,"coordinates":[60.5901627,56.63698615],"type":"Point"},"properties":{"name":"Корпус Б (3 секции)","id":443,"category":"Регионального значения"}},{"type":"Feature","geometry":{"id":132422,"coordinates":[60.5901627,56.63698615],"type":"Point"},"properties":{"name":"Корпус Г","id":445,"category":"Регионального значения"}},{"type":"Feature","geometry":{"id":132427,"coordinates":[60.57585322851741,56.828204150000005],"type":"Point"},"properties":{"name":"Могила писателя И.И. Ликстанова","id":454,"category":"Регионального значения"}},{"type":"Feature","geometry":{"id":132428,"coordinates":[60.5946045,56.8336449],"type":"Point"},"properties":{"name":"Дом жилой с лавкой","id":455,"category":"Регионального значения"}},{"type":"Feature","geometry":{"id":132429,"coordinates":[60.60982567172018,56.8235276],"type":"Point"},"properties":{"name":"Полутораэтажный дом в русском стиле","id":457,"category":"Регионального значения"}},{"type":"Feature","geometry":{"id":132430,"coordinates":[60.60982567172018,56.8235276],"type":"Point"},"properties":{"name":"Дом с мезонином","id":458,"category":"Регионального значения"}},{"type":"Feature","geometry":{"id":132431,"coordinates":[60.60982567172018,56.8235276],"type":"Point"},"properties":{"name":"Усадьба Первушина","id":459,"category":"Регионального значения"}},{"type":"Feature","geometry":{"id":132432,"coordinates":[60.51479680311625,56.69023075],"type":"Point"},"properties":{"name":"Особняк","id":460,"category":"Регионального значения"}},{"type":"Feature","geometry":{"id":132433,"coordinates":[60.62554185486577,56.827507350000005],"type":"Point"},"properties":{"name":"Комплекс зданий бывших Оровайских казарм, где зародился Первый Уральский стрелковый полк","id":451,"category":"Регионального значения"}},{"type":"Feature","geometry":{"id":132434,"coordinates":[60.5272610818845,56.812776299999996],"type":"Point"},"properties":{"name":"Могила хирурга А.Т. Лидского","id":452,"category":"Регионального значения"}},{"type":"Feature","geometry":{"id":132435,"coordinates":[60.59190919533516,56.85185275],"type":"Point"},"properties":{"name":"Здание Управления Свердловской железной дороги","id":450,"category":"Федерального значения"}},{"type":"Feature","geometry":{"id":132425,"coordinates":[60.5272610818845,56.812776299999996],"type":"Point"},"properties":{"name":"Могила дирижера А.Э. Маргуляна","id":453,"category":"Регионального значения"}},{"type":"Feature","geometry":{"id":132426,"coordinates":[60.60982567172018,56.8235276],"type":"Point"},"properties":{"name":"Ворота","id":456,"category":"Регионального значения"}},{"type":"Feature","geometry":{"id":132438,"coordinates":[60.614046106831054,56.8238487],"type":"Point"},"properties":{"name":"Двухэтажный жилой дом","id":468,"category":"Регионального значения"}},{"type":"Feature","geometry":{"id":132437,"coordinates":[60.58882693049598,56.833644],"type":"Point"},"properties":{"name":"Усадьба купцов Ермолаевых","id":467,"category":"Регионального значения"}},{"type":"Feature","geometry":{"id":132295,"coordinates":[60.61357478104209,56.8400119],"type":"Point"},"properties":{"name":"Здание театра музыкальной комедии","id":62,"category":"Регионального значения"}},{"type":"Feature","geometry":{"id":132443,"coordinates":[60.614046106831054,56.8238487],"type":"Point"},"properties":{"name":"Двое ворот","id":470,"category":"Регионального значения"}},{"type":"Feature","geometry":{"id":132442,"coordinates":[60.58882693049598,56.833644],"type":"Point"},"properties":{"name":"Дом жилой","id":466,"category":"Регионального значения"}},{"type":"Feature","geometry":{"id":132440,"coordinates":[60.614046106831054,56.8238487],"type":"Point"},"properties":{"name":"Ограда","id":469,"category":"Регионального значения"}},{"type":"Feature","geometry":{"id":132441,"coordinates":[60.58882693049598,56.833644],"type":"Point"},"properties":{"name":"Ворота","id":465,"category":"Регионального значения"}},{"type":"Feature","geometry":{"id":132306,"coordinates":[60.51192758368465,56.6925753],"type":"Point"},"properties":{"name":"Ворота","id":291,"category":"Регионального значения"}},{"type":"Feature","geometry":{"id":132445,"coordinates":[60.60132041711593,56.82084725],"type":"Point"},"properties":{"name":"Постройки хозяйственные","id":475,"category":"Регионального значения"}},{"type":"Feature","geometry":{"id":132447,"coordinates":[60.60132041711593,56.82084725],"type":"Point"},"properties":{"name":"Конюшня","id":477,"category":"Регионального значения"}},{"type":"Feature","geometry":{"id":132448,"coordinates":[60.60132041711593,56.82084725],"type":"Point"},"properties":{"name":"Завод свечной","id":478,"category":"Регионального значения"}},{"type":"Feature","geometry":{"id":132449,"coordinates":[60.60132041711593,56.82084725],"type":"Point"},"properties":{"name":"Богадельня и больница","id":480,"category":"Регионального значения"}},{"type":"Feature","geometry":{"id":132450,"coordinates":[60.60132041711593,56.82084725],"type":"Point"},"properties":{"name":"Флигель","id":481,"category":"Регионального значения"}},{"type":"Feature","geometry":{"id":132451,"coordinates":[60.60132041711593,56.82084725],"type":"Point"},"properties":{"name":"Кельи западные","id":482,"category":"Регионального значения"}},{"type":"Feature","geometry":{"id":132452,"coordinates":[60.60132041711593,56.82084725],"type":"Point"},"properties":{"name":"Ограда","id":472,"category":"Федерального значения"}},{"type":"Feature","geometry":{"id":132453,"coordinates":[60.60132041711593,56.82084725],"type":"Point"},"properties":{"name":"Комплекс зданий Ново-Тихвинского монастыря","id":474,"category":"Федерального значения"}},{"type":"Feature","geometry":{"id":132446,"coordinates":[60.60132041711593,56.82084725],"type":"Point"},"properties":{"name":"Амбар хлебный (пекарня, церковно-приходская школа)","id":476,"category":"Регионального значения"}},{"type":"Feature","geometry":{"id":132458,"coordinates":[60.6056733310292,56.83631405],"type":"Point"},"properties":{"name":"Сушильный корпус","id":491,"category":"Федерального значения"}},{"type":"Feature","geometry":{"id":132460,"coordinates":[60.60132041711593,56.82084725],"type":"Point"},"properties":{"name":"Корпус главный","id":485,"category":"Регионального значения"}},{"type":"Feature","geometry":{"id":132455,"coordinates":[60.61201920619733,56.823164649999995],"type":"Point"},"properties":{"name":"Усадьба М.А. Нурова","id":501,"category":"Регионального значения"}},{"type":"Feature","geometry":{"id":132658,"coordinates":[60.59027,56.837342],"type":"Point"},"properties":{"name":"Корпус учебный","id":734,"category":"Регионального значения"}},{"type":"Feature","geometry":{"id":132457,"coordinates":[60.6056733310292,56.83631405],"type":"Point"},"properties":{"name":"Здание кладовых","id":490,"category":"Федерального значения"}},{"type":"Feature","geometry":{"id":132461,"coordinates":[60.60132041711593,56.82084725],"type":"Point"},"properties":{"name":"Церковь Всех Святых","id":486,"category":"Регионального значения"}},{"type":"Feature","geometry":{"id":132456,"coordinates":[60.61238897102541,56.834827250000004],"type":"Point"},"properties":{"name":"Дом купца Н.Г. Бабикова","id":414,"category":"Регионального значения"}},{"type":"Feature","geometry":{"id":132459,"coordinates":[60.60132041711593,56.82084725],"type":"Point"},"properties":{"name":"Корпус жилой","id":484,"category":"Регионального значения"}},{"type":"Feature","geometry":{"id":132315,"coordinates":[60.60317593919734,56.8317232],"type":"Point"},"properties":{"name":"Дом старообрядческий Успенской часовни","id":300,"category":"Регионального значения"}},{"type":"Feature","geometry":{"id":132463,"coordinates":[60.61141641999028,56.82191935],"type":"Point"},"properties":{"name":"Ограда и ворота","id":561,"category":"Регионального значения"}},{"type":"Feature","geometry":{"id":132336,"coordinates":[60.614692742320386,56.83523855],"type":"Point"},"properties":{"name":"Дом жилой","id":332,"category":"Регионального значения"}},{"type":"Feature","geometry":{"id":132467,"coordinates":[60.58945994606937,56.842466],"type":"Point"},"properties":{"name":"Здание в стиле модерн","id":420,"category":"Регионального значения"}},{"type":"Feature","geometry":{"id":132462,"coordinates":[60.61201920619733,56.823164649999995],"type":"Point"},"properties":{"name":"Двухэтажная каменная хозяйственная постройка","id":499,"category":"Регионального значения"}},{"type":"Feature","geometry":{"id":132468,"coordinates":[60.5841037796705,56.8406053],"type":"Point"},"properties":{"name":"Ворота и ограда","id":500,"category":"Регионального значения"}},{"type":"Feature","geometry":{"id":132631,"coordinates":[60.588626281627555,56.83636355],"type":"Point"},"properties":{"name":"Усадьба купца А.С. Шарова","id":336,"category":"Регионального значения"}},{"type":"Feature","geometry":{"id":132465,"coordinates":[60.59837584409095,56.840486600000006],"type":"Point"},"properties":{"name":"Дом жилой (Дом старых большевиков)","id":304,"category":"Регионального значения"}},{"type":"Feature","geometry":{"id":132466,"coordinates":[60.5841037796705,56.8406053],"type":"Point"},"properties":{"name":"Усадьба Кокшаровых","id":497,"category":"Регионального значения"}},{"type":"Feature","geometry":{"id":132337,"coordinates":[60.60781537841975,56.833769849999996],"type":"Point"},"properties":{"name":"Труба дымовая восьмигранная","id":327,"category":"Регионального значения"}},{"type":"Feature","geometry":{"id":132472,"coordinates":[60.611175849999995,56.74249125],"type":"Point"},"properties":{"name":"Спасская церковь","id":448,"category":"Регионального значения"}},{"type":"Feature","geometry":{"id":132473,"coordinates":[60.60540493225935,56.85848405],"type":"Point"},"properties":{"name":"Павильон","id":508,"category":"Регионального значения"}},{"type":"Feature","geometry":{"id":132475,"coordinates":[60.58693361271551,56.83530695],"type":"Point"},"properties":{"name":"Завод аффинажный: производственный корпус","id":506,"category":"Регионального значения"}},{"type":"Feature","geometry":{"id":132470,"coordinates":[60.61201920619733,56.823164649999995],"type":"Point"},"properties":{"name":"Ограда с колоннадой","id":503,"category":"Регионального значения"}},{"type":"Feature","geometry":{"id":132476,"coordinates":[60.61201920619733,56.823164649999995],"type":"Point"},"properties":{"name":"Территория сада","id":504,"category":"Регионального значения"}},{"type":"Feature","geometry":{"id":132342,"coordinates":[60.588626281627555,56.83636355],"type":"Point"},"properties":{"name":"Ворота","id":338,"category":"Регионального значения"}},{"type":"Feature","geometry":{"id":132474,"coordinates":[60.582221,56.836672],"type":"Point"},"properties":{"name":"Комплекс жилых зданий (конструктивизм)","id":441,"category":"Регионального значения"}},{"type":"Feature","geometry":{"id":132471,"coordinates":[60.605133,56.832003],"type":"Point"},"properties":{"name":"Жилой дом","id":628,"category":"Регионального значения"}},{"type":"Feature","geometry":{"id":132346,"coordinates":[60.60756912623651,56.854889549999996],"type":"Point"},"properties":{"name":"Силовой цех","id":344,"category":"Регионального значения"}},{"type":"Feature","geometry":{"id":132479,"coordinates":[60.624379612095694,56.84309395],"type":"Point"},"properties":{"name":"Жилой дом","id":515,"category":"Федерального значения"}},{"type":"Feature","geometry":{"id":132480,"coordinates":[60.624999736546314,56.8414758],"type":"Point"},"properties":{"name":"Комплекс Штаба УРАЛВО","id":516,"category":"Федерального значения"}},{"type":"Feature","geometry":{"id":132348,"coordinates":[60.61050133664189,56.837318749999994],"type":"Point"},"properties":{"name":"Каменные ворота","id":373,"category":"Регионального значения"}},{"type":"Feature","geometry":{"id":132482,"coordinates":[60.594022334700156,56.827754150000004],"type":"Point"},"properties":{"name":"Дом И.Е. Шабаргина","id":519,"category":"Регионального значения"}},{"type":"Feature","geometry":{"id":132805,"coordinates":[60.610945,56.84943],"type":"Point"},"properties":{"name":"Производственное здание Мельковского механического завода Ф.Е.Ятеса","id":569,"category":"Регионального значения"}},{"type":"Feature","geometry":{"id":132483,"coordinates":[60.6215530053207,56.82301495],"type":"Point"},"properties":{"name":"Элементы благоустройства (гранитные столбики и тротуар)","id":538,"category":"Регионального значения"}},{"type":"Feature","geometry":{"id":132363,"coordinates":[60.60893467797957,56.8380179],"type":"Point"},"properties":{"name":"Аптека","id":360,"category":"Регионального значения"}},{"type":"Feature","geometry":{"id":132485,"coordinates":[60.6056733310292,56.83631405],"type":"Point"},"properties":{"name":"Стена главного корпуса","id":494,"category":"Федерального значения"}},{"type":"Feature","geometry":{"id":132488,"coordinates":[60.61201920619733,56.823164649999995],"type":"Point"},"properties":{"name":"Двухэтажный каменный жилой дом","id":527,"category":"Регионального значения"}},{"type":"Feature","geometry":{"id":132490,"coordinates":[60.59164149208748,56.8367863],"type":"Point"},"properties":{"name":"Дом купцов Ижболдиных","id":522,"category":"Регионального значения"}},{"type":"Feature","geometry":{"id":132633,"coordinates":[60.611863389587725,56.84357935],"type":"Point"},"properties":{"name":"Екатеринбургская художественно-промышленная школа","id":253,"category":"Регионального значения"}},{"type":"Feature","geometry":{"id":132674,"coordinates":[60.60820078617286,56.83729155],"type":"Point"},"properties":{"name":"2-й Дом горсовета","id":93,"category":"Местного (муниципального) значения"}},{"type":"Feature","geometry":{"id":132355,"coordinates":[60.61090246727437,56.84270255],"type":"Point"},"properties":{"name":"Здание Свердловской государственной филармонии (бывший Деловой клуб)","id":356,"category":"Регионального значения"}},{"type":"Feature","geometry":{"id":132486,"coordinates":[60.59145776040836,56.83664505],"type":"Point"},"properties":{"name":"Хозпостройки","id":524,"category":"Регионального значения"}},{"type":"Feature","geometry":{"id":132489,"coordinates":[60.60403904110052,56.8331022],"type":"Point"},"properties":{"name":"Сад","id":539,"category":"Регионального значения"}},{"type":"Feature","geometry":{"id":132373,"coordinates":[60.599740407238414,56.83323595],"type":"Point"},"properties":{"name":"Дом мещанки Д.Я. Симановой","id":32,"category":"Регионального значения"}},{"type":"Feature","geometry":{"id":132495,"coordinates":[60.5851057266151,56.83763245],"type":"Point"},"properties":{"name":"Северный флигель \"контора вольных почт\"","id":507,"category":"Регионального значения"}},{"type":"Feature","geometry":{"id":132493,"coordinates":[60.58543,56.836884],"type":"Point"},"properties":{"name":"Усадьба Дрозжиловых-Г.Б. Перетц","id":537,"category":"Регионального значения"}},{"type":"Feature","geometry":{"id":132496,"coordinates":[60.58851205,56.636390750000004],"type":"Point"},"properties":{"name":"Ворота","id":532,"category":"Регионального значения"}},{"type":"Feature","geometry":{"id":132497,"coordinates":[60.58543,56.836884],"type":"Point"},"properties":{"name":"Восточный флигель","id":535,"category":"Регионального значения"}},{"type":"Feature","geometry":{"id":132685,"coordinates":[60.61434785086851,56.84268295],"type":"Point"},"properties":{"name":"Дом чиновника Я.С. Стахиева","id":155,"category":"Регионального значения"}},{"type":"Feature","geometry":{"id":132491,"coordinates":[60.60403904110052,56.8331022],"type":"Point"},"properties":{"name":"Ворота и ограда","id":533,"category":"Регионального значения"}},{"type":"Feature","geometry":{"id":132387,"coordinates":[60.64111237720245,56.8431147],"type":"Point"},"properties":{"name":"Дом жилой","id":397,"category":"Регионального значения"}},{"type":"Feature","geometry":{"id":132499,"coordinates":[60.60350342988921,56.83240715],"type":"Point"},"properties":{"name":"Ворота и ограда","id":547,"category":"Регионального значения"}},{"type":"Feature","geometry":{"id":132501,"coordinates":[60.60403904110052,56.8331022],"type":"Point"},"properties":{"name":"Усадьба Е.С. Бородиной","id":541,"category":"Регионального значения"}},{"type":"Feature","geometry":{"id":132502,"coordinates":[60.6215530053207,56.82301495],"type":"Point"},"properties":{"name":"Одноэтажный деревянный флигель","id":543,"category":"Регионального значения"}},{"type":"Feature","geometry":{"id":132503,"coordinates":[60.623953286339656,56.84222495],"type":"Point"},"properties":{"name":"Спортивный зал","id":513,"category":"Федерального значения"}},{"type":"Feature","geometry":{"id":132504,"coordinates":[60.6215530053207,56.82301495],"type":"Point"},"properties":{"name":"Усадьба купца В.С. Потапова","id":545,"category":"Регионального значения"}},{"type":"Feature","geometry":{"id":132505,"coordinates":[60.60350342988921,56.83240715],"type":"Point"},"properties":{"name":"Флигель","id":546,"category":"Регионального значения"}},{"type":"Feature","geometry":{"id":132506,"coordinates":[60.60350342988921,56.83240715],"type":"Point"},"properties":{"name":"Дом жилой","id":548,"category":"Регионального значения"}},{"type":"Feature","geometry":{"id":132397,"coordinates":[60.607139307831986,56.8412711],"type":"Point"},"properties":{"name":"Дом, в котором жил Мамин-Сибиряк Дмитрий Наркисович в 1885-1891 гг. В доме-мемориальный музей Д.Н. Мамина-Сибиряка","id":144,"category":"Федерального значения"}},{"type":"Feature","geometry":{"id":132500,"coordinates":[60.60403904110052,56.8331022],"type":"Point"},"properties":{"name":"Двухэтажный каменный жилой дом","id":550,"category":"Регионального значения"}},{"type":"Feature","geometry":{"id":132511,"coordinates":[60.578225,56.852241],"type":"Point"},"properties":{"name":"Плотина на реке Ольховке","id":697,"category":"Федерального значения"}},{"type":"Feature","geometry":{"id":132512,"coordinates":[60.5841037796705,56.8406053],"type":"Point"},"properties":{"name":"Флигель каменный","id":555,"category":"Регионального значения"}},{"type":"Feature","geometry":{"id":132508,"coordinates":[60.6028313059107,56.817355199999994],"type":"Point"},"properties":{"name":"Дом жилой","id":558,"category":"Регионального значения"}},{"type":"Feature","geometry":{"id":132510,"coordinates":[60.603674299999994,56.8173897],"type":"Point"},"properties":{"name":"Дом жилой","id":553,"category":"Регионального значения"}},{"type":"Feature","geometry":{"id":132513,"coordinates":[60.5841037796705,56.8406053],"type":"Point"},"properties":{"name":"Одноэтажный каменный дом","id":554,"category":"Регионального значения"}},{"type":"Feature","geometry":{"id":132398,"coordinates":[60.601499,56.837613],"type":"Point"},"properties":{"name":"Здание Уральского горного училища","id":581,"category":"Регионального значения"}},{"type":"Feature","geometry":{"id":132402,"coordinates":[60.612804973365265,56.834949949999995],"type":"Point"},"properties":{"name":"Гостиница \"Центральная\"","id":418,"category":"Регионального значения"}},{"type":"Feature","geometry":{"id":132514,"coordinates":[60.61507088851413,56.82904015],"type":"Point"},"properties":{"name":"Дом Шевкуновой Е.И.","id":557,"category":"Регионального значения"}},{"type":"Feature","geometry":{"id":132436,"coordinates":[60.61830275,56.8304167],"type":"Point"},"properties":{"name":"Дом А.И. Меньшиковой","id":161,"category":"Регионального значения"}},{"type":"Feature","geometry":{"id":132517,"coordinates":[60.641620407910786,56.843281250000004],"type":"Point"},"properties":{"name":"Дом жилой с магазином","id":566,"category":"Регионального значения"}},{"type":"Feature","geometry":{"id":132519,"coordinates":[60.57567081874078,56.8362786],"type":"Point"},"properties":{"name":"Здание терапевтического отделения Городской больницы","id":568,"category":"Регионального значения"}},{"type":"Feature","geometry":{"id":132418,"coordinates":[60.61569996880006,56.824180350000006],"type":"Point"},"properties":{"name":"Корпус лечебный","id":391,"category":"Регионального значения"}},{"type":"Feature","geometry":{"id":132518,"coordinates":[60.581669043975026,56.830162400000006],"type":"Point"},"properties":{"name":"Детский сад (Дом-улитка)","id":564,"category":"Регионального значения"}},{"type":"Feature","geometry":{"id":61391,"coordinates":[[56.830861,60.598921],[56.83081,60.598624]],"type":"Polygon"},"properties":{"name":"Усадьба купца Ваганова","id":727,"category":"Регионального значения"}},{"type":"Feature","geometry":{"id":132525,"coordinates":[60.595419,56.833332],"type":"Point"},"properties":{"name":"Банк Русско-Азиатский","id":571,"category":"Регионального значения"}},{"type":"Feature","geometry":{"id":132439,"coordinates":[60.61181933896697,56.833869199999995],"type":"Point"},"properties":{"name":"Двухэтажный полукаменный флигель","id":464,"category":"Регионального значения"}},{"type":"Feature","geometry":{"id":132444,"coordinates":[60.55397529335261,56.8395091],"type":"Point"},"properties":{"name":"ДК ВИЗа","id":410,"category":"Регионального значения"}},{"type":"Feature","geometry":{"id":132520,"coordinates":[60.597807,56.837293],"type":"Point"},"properties":{"name":"Здание Горсовета","id":575,"category":"Регионального значения"}},{"type":"Feature","geometry":{"id":132521,"coordinates":[60.598795,56.836717],"type":"Point"},"properties":{"name":"Деловой дом","id":576,"category":"Регионального значения"}},{"type":"Feature","geometry":{"id":132522,"coordinates":[60.598816,56.830755],"type":"Point"},"properties":{"name":"Ворота","id":573,"category":"Регионального значения"}},{"type":"Feature","geometry":{"id":132524,"coordinates":[60.557877,56.838829],"type":"Point"},"properties":{"name":"Жилой дом","id":572,"category":"Регионального значения"}},{"type":"Feature","geometry":{"id":132528,"coordinates":[60.595911,56.826562],"type":"Point"},"properties":{"name":"Церковь Николая Чудотворца","id":586,"category":"Регионального значения"}},{"type":"Feature","geometry":{"id":132526,"coordinates":[60.597349,56.838509],"type":"Point"},"properties":{"name":"Дом жилой","id":583,"category":"Местного (муниципального) значения"}},{"type":"Feature","geometry":{"id":132529,"coordinates":[60.613438,56.818395],"type":"Point"},"properties":{"name":"Дом Бажова Павла Петровича, в котором он жил с 1906 по 1950 гг.","id":587,"category":"Федерального значения"}},{"type":"Feature","geometry":{"id":132530,"coordinates":[60.58851205,56.636390750000004],"type":"Point"},"properties":{"name":"Угловой флигель","id":531,"category":"Регионального значения"}},{"type":"Feature","geometry":{"id":132531,"coordinates":[60.607823,56.837818],"type":"Point"},"properties":{"name":"Здание административное","id":585,"category":"Регионального значения"}},{"type":"Feature","geometry":{"id":132532,"coordinates":[60.592498,56.836854],"type":"Point"},"properties":{"name":"Дом жилой","id":584,"category":"Регионального значения"}},{"type":"Feature","geometry":{"id":132533,"coordinates":[60.6215530053207,56.82301495],"type":"Point"},"properties":{"name":"Каменная ограда и ворота","id":542,"category":"Регионального значения"}},{"type":"Feature","geometry":{"id":132534,"coordinates":[60.59363,56.838937],"type":"Point"},"properties":{"name":"Гимназия женская","id":580,"category":"Регионального значения"}},{"type":"Feature","geometry":{"id":132527,"coordinates":[60.59145776040836,56.83664505],"type":"Point"},"properties":{"name":"Флигель","id":523,"category":"Регионального значения"}},{"type":"Feature","geometry":{"id":132454,"coordinates":[60.59626869354658,56.830826650000006],"type":"Point"},"properties":{"name":"Усадьба мещанина А.Р. Кожурина","id":489,"category":"Регионального значения"}},{"type":"Feature","geometry":{"id":132539,"coordinates":[60.6215530053207,56.82301495],"type":"Point"},"properties":{"name":"Одноэтажный каменный жилой дом","id":544,"category":"Регионального значения"}},{"type":"Feature","geometry":{"id":132535,"coordinates":[60.589381,56.837307],"type":"Point"},"properties":{"name":"Дом жилой","id":592,"category":"Регионального значения"}},{"type":"Feature","geometry":{"id":132540,"coordinates":[60.592677,56.831546],"type":"Point"},"properties":{"name":"Дом мещанина А.А. Попова","id":595,"category":"Регионального значения"}},